chgis.init.php processing /srv/openpoidb/databases/CHGIS/v4_1820_cnty_pts_utf/v4_1820_cnty_pts_utf.txt
processing line 1 with id:1, name:Ba Zhou [lat=39.101536, lon=116.395248], type: Zhou...
inserted a new POI with UUID: 3d80d597-1241-494a-8163-00dd32e884c2
processing line 2 with id:2, name:Zhenghuangdengsiqi Muchang [lat=41.214775, lon=113.894218], type: Muchang...
inserted a new POI with UUID: a49957cf-8f68-4f01-abff-63ddb9511bf0
processing line 3 with id:3, name:Dingxing [lat=39.269592, lon=115.774193], type: Xian...
inserted a new POI with UUID: 261918c0-4e93-42ae-9066-cda28e55ca6d
processing line 4 with id:4, name:Shenze [lat=38.184902, lon=115.192085], type: Xian...
inserted a new POI with UUID: fc889ef0-2435-49b9-aceb-f6c14f603794
processing line 5 with id:5, name:Quyang [lat=38.621449, lon=114.690201], type: Xian...
inserted a new POI with UUID: ce7ace34-b900-4339-b8ea-c79aa3e8cd4f
processing line 6 with id:6, name:Zaoqiang [lat=37.502640, lon=115.718079], type: Xian...
inserted a new POI with UUID: 3181d417-b5aa-4541-92d9-97f86070cf5e
processing line 7 with id:7, name:Wuyi [lat=37.805992, lon=115.890663], type: Xian...
inserted a new POI with UUID: d69cf8a0-b731-4d6c-b3a4-c8e3538e60a8
processing line 8 with id:8, name:Nangong [lat=37.359154, lon=115.380066], type: Xian...
inserted a new POI with UUID: a45ab3cf-daf4-4ea2-8ecb-4f4c5eb8a5e8
processing line 9 with id:9, name:Hengshui [lat=37.726162, lon=115.705727], type: Xian...
inserted a new POI with UUID: 4b606a05-afae-4f5e-bffd-b25824a376e3
processing line 10 with id:10, name:Xinhe [lat=37.529594, lon=115.246506], type: Xian...
inserted a new POI with UUID: 9d7b1bb3-1079-4999-91eb-615e8042a892
processing line 11 with id:11, name:Wuqiang [lat=37.994431, lon=115.859230], type: Xian...
inserted a new POI with UUID: 8361967f-b872-4e0e-976d-8c8964b9d480
processing line 12 with id:12, name:Raoyang [lat=38.245987, lon=115.736023], type: Xian...
inserted a new POI with UUID: 0d0ffeb9-2eed-4286-b711-94cbf21394b6
processing line 13 with id:13, name:Laishui [lat=39.391743, lon=115.707802], type: Xian...
inserted a new POI with UUID: e4d1a572-aba4-49b8-aae3-e2d5ca25305e
processing line 14 with id:14, name:Guangchang [lat=39.354015, lon=114.688774], type: Xian...
inserted a new POI with UUID: 04d7f21c-26e9-4acf-9279-47dbc882be48
processing line 15 with id:15, name:Baixiang [lat=37.494690, lon=114.680580], type: Xian...
inserted a new POI with UUID: b388a568-ac6c-4b55-9180-5825c88119dc
processing line 16 with id:16, name:Ningjin [lat=37.621086, lon=114.915398], type: Xian...
inserted a new POI with UUID: 0aa9ac0d-4d80-45be-9a5e-7fef37f24fe9
processing line 17 with id:17, name:Gaoyi [lat=37.604755, lon=114.611526], type: Xian...
inserted a new POI with UUID: 50c92db7-2485-4bf3-9d1c-4cf1f064706b
processing line 18 with id:18, name:Longping [lat=37.352280, lon=114.766045], type: Xian...
inserted a new POI with UUID: 55860fde-ff22-49b0-86ac-102f3440f77a
processing line 19 with id:19, name:Yutian [lat=39.883671, lon=117.754776], type: Xian...
inserted a new POI with UUID: dd21373a-53a3-4903-a29d-d0d49cb5ec3f
processing line 20 with id:20, name:Fengrun [lat=39.827602, lon=118.134895], type: Xian...
inserted a new POI with UUID: 000bc423-327c-46a5-98f6-00856fa29c0d
processing line 21 with id:21, name:Tang Xian [lat=38.741489, lon=114.969101], type: Xian...
inserted a new POI with UUID: 81e1d1c6-9b29-46b8-ab01-9ee857657679
processing line 22 with id:22, name:Shulu [lat=37.848534, lon=115.308548], type: Xian...
inserted a new POI with UUID: d9ea36f4-061b-440f-97d7-b8a284e42743
processing line 23 with id:23, name:Li Xian [lat=38.490063, lon=115.574700], type: Xian...
inserted a new POI with UUID: c166ad7e-065f-4fc4-8ef8-17bf5c591806
processing line 24 with id:24, name:Qi Zhou [lat=38.412342, lon=115.315086], type: Zhou...
inserted a new POI with UUID: 5c982474-de93-4d33-be87-dce7d03a7382
processing line 25 with id:25, name:Gaoyang [lat=38.688908, lon=115.774200], type: Xian...
inserted a new POI with UUID: 70c9e82d-eaad-4d31-8fec-ae8868e5fcaf
processing line 26 with id:26, name:Mancheng [lat=38.947723, lon=115.315620], type: Xian...
inserted a new POI with UUID: b444f03c-c68b-48a2-89c7-74f016f4af1e
processing line 27 with id:27, name:Qingyuan [lat=38.756588, lon=115.484612], type: Xian...
inserted a new POI with UUID: dbd62718-67df-401d-8289-e74ac3a72a97
processing line 28 with id:28, name:Xiong Xian [lat=38.975880, lon=116.092705], type: Xian...
inserted a new POI with UUID: da6150b0-51fc-46a2-99cd-2bfb327f3c78
processing line 29 with id:29, name:Boye [lat=38.457569, lon=115.459084], type: Xian...
inserted a new POI with UUID: 18497e3e-bc13-4ca5-b994-a70fda39713e
processing line 30 with id:30, name:Ansu [lat=39.019436, lon=115.657387], type: Xian...
inserted a new POI with UUID: b2addccc-44a6-4221-84d3-42361bf462ec
processing line 31 with id:31, name:Xincheng [lat=39.245949, lon=115.987564], type: Xian...
inserted a new POI with UUID: d6aa4329-a8c4-479b-95a2-a86db08b80c6
processing line 32 with id:32, name:Rongcheng [lat=39.051655, lon=115.865715], type: Xian...
inserted a new POI with UUID: 675e2dbf-f526-498c-983c-caabec2734db
processing line 33 with id:33, name:Wangdu [lat=38.705265, lon=115.133423], type: Xian...
inserted a new POI with UUID: 3f8d1efa-2762-49b1-a33f-0f070b836a3c
processing line 34 with id:34, name:Lulong [lat=39.876999, lon=118.862000], type: Xian...
inserted a new POI with UUID: 481992e2-e7d8-47a7-8a9b-85cd5b104192
processing line 35 with id:35, name:An Zhou [lat=38.875374, lon=115.817550], type: Zhou...
inserted a new POI with UUID: 167c95b7-e3fc-42ba-8793-ec72581d569f
processing line 36 with id:36, name:Xin'an [lat=38.924999, lon=115.928001], type: Xian...
inserted a new POI with UUID: 77e5e8ac-59e1-49f5-b97f-69f2f2ea8951
processing line 37 with id:37, name:Nanle [lat=36.077473, lon=115.197624], type: Xian...
inserted a new POI with UUID: 46c5262a-52a0-48ab-95ea-1003e7f8ff2c
processing line 38 with id:38, name:Yuancheng [lat=36.275528, lon=115.146523], type: Xian...
inserted a new POI with UUID: f2858675-1096-4e60-a005-c92c347b2ffc
processing line 39 with id:39, name:Daming [lat=36.275528, lon=115.146500], type: Xian...
inserted a new POI with UUID: 96c70739-37e1-4f76-8bf9-efb597d6e1b4
processing line 40 with id:40, name:Kai Zhou [lat=35.754284, lon=115.005928], type: Zhou...
inserted a new POI with UUID: 7e7dc8cf-f15c-436a-b35b-e14cefc1f2b5
processing line 41 with id:41, name:Dongming [lat=35.298492, lon=115.088844], type: Xian...
inserted a new POI with UUID: 50653a48-f4ef-4c7f-b6ba-0995e0212c1e
processing line 42 with id:42, name:Qingfeng [lat=35.908768, lon=115.110039], type: Xian...
inserted a new POI with UUID: 4f0dd10b-7c91-4e68-8e37-426d80660aae
processing line 43 with id:43, name:Changyuan [lat=35.198360, lon=114.682724], type: Xian...
inserted a new POI with UUID: 13c64f2f-5205-4711-9436-b3db8a4b19d9
processing line 44 with id:44, name:Suning [lat=38.431767, lon=115.831810], type: Xian...
inserted a new POI with UUID: de1a6748-2dc9-403c-b326-e8d3c09a0ff0
processing line 45 with id:45, name:Wuqiao [lat=37.606762, lon=116.503738], type: Xian...
inserted a new POI with UUID: d2ba7ecd-a04b-4484-910d-2f965bd4f0b1
processing line 46 with id:46, name:Fucheng [lat=37.868179, lon=116.144707], type: Xian...
inserted a new POI with UUID: 833ec4ae-6299-4876-b162-57a99467b305
processing line 47 with id:47, name:Xian Xian [lat=38.190697, lon=116.114899], type: Xian...
inserted a new POI with UUID: bd586ab4-ae76-48c0-9cf7-9257225a5081
processing line 48 with id:48, name:Jing Zhou [lat=37.688007, lon=116.258102], type: Zhou...
inserted a new POI with UUID: b420cb79-b9db-4a6b-986f-2e3d94955d79
processing line 49 with id:49, name:Gucheng [lat=37.380795, lon=116.124138], type: Xian...
inserted a new POI with UUID: 1f30a246-803e-4179-99c5-c7a9d6f350ff
processing line 50 with id:50, name:Ningjin [lat=37.649857, lon=116.792801], type: Xian...
inserted a new POI with UUID: d5329b60-c21a-4d79-a334-89e6a8ae7d80
processing line 51 with id:51, name:Dongguang [lat=37.884556, lon=116.532822], type: Xian...
inserted a new POI with UUID: edf77864-459b-43d5-82a5-95f2e3bc9eae
processing line 52 with id:52, name:Jiaohe [lat=38.017044, lon=116.285118], type: Xian...
inserted a new POI with UUID: 18471162-a4ac-4ced-a0ff-fff206165ad2
processing line 53 with id:53, name:Renqiu [lat=38.707668, lon=116.090485], type: Xian...
inserted a new POI with UUID: 816eed53-0133-4ec8-9e7a-c089f059c191
processing line 54 with id:54, name:Hejian [lat=38.435699, lon=116.085533], type: Xian...
inserted a new POI with UUID: aaf548db-493a-4e2a-a4a1-f768de36743a
processing line 55 with id:55, name:Jize [lat=36.924026, lon=114.874496], type: Xian...
inserted a new POI with UUID: 7ad95fce-4f50-4bb0-937a-6b2cd296b30b
processing line 56 with id:56, name:Qinghe [lat=37.070076, lon=115.656303], type: Xian...
inserted a new POI with UUID: 60fc0f94-cb55-4e7f-bd99-864d58f662c5
processing line 57 with id:57, name:Wei Xian [lat=36.974178, lon=115.259262], type: Xian...
inserted a new POI with UUID: 2694cd5c-5e18-4469-b0d8-2fa191fbdf65
processing line 58 with id:58, name:Yongnian [lat=36.701031, lon=114.723068], type: Xian...
inserted a new POI with UUID: 2eab718c-f974-4cc4-8cf3-a4856c9fdec6
processing line 59 with id:59, name:Qu Zhou [lat=36.779305, lon=114.949654], type: Xian...
inserted a new POI with UUID: f914f706-56c8-488b-b670-fdefb4b17417
processing line 60 with id:60, name:Ci Zhou [lat=36.359043, lon=114.374245], type: Zhou...
inserted a new POI with UUID: c3883622-1603-4d2a-b17e-245db0cd8f4e
processing line 61 with id:61, name:Feixiang [lat=36.552029, lon=114.803101], type: Xian...
inserted a new POI with UUID: f09ccb86-a7a3-4a4b-af61-22ba22d9971b
processing line 62 with id:62, name:Cheng'an [lat=36.441349, lon=114.694061], type: Xian...
inserted a new POI with UUID: 15e02528-a871-4739-ada8-c30d17eaaa58
processing line 63 with id:63, name:Guangping [lat=36.480518, lon=114.936844], type: Xian...
inserted a new POI with UUID: 47b4b80b-ea3e-439e-9de9-ec64b36aaace
processing line 64 with id:64, name:Handan [lat=36.593475, lon=114.472038], type: Xian...
inserted a new POI with UUID: 82d51f19-54b5-4cc7-8c29-6bb7cba95c8a
processing line 65 with id:65, name:Chifeng [lat=42.268990, lon=118.952454], type: Xian...
inserted a new POI with UUID: 1abdea41-6612-412f-ba64-75107d04f84b
processing line 66 with id:66, name:Fengning [lat=41.230995, lon=117.197258], type: Xian...
inserted a new POI with UUID: 90e13690-2d87-4202-86f0-475a30f353a6
processing line 67 with id:67, name:Luanping [lat=40.949322, lon=117.730652], type: Xian...
inserted a new POI with UUID: 42e683c5-505e-4621-a91d-7b078e7050af
processing line 68 with id:68, name:Jianchang [lat=41.239494, lon=119.389893], type: Xian...
inserted a new POI with UUID: 6d2f1ab3-0a06-428b-8851-2139af44d4d9
processing line 69 with id:69, name:Chaoyang [lat=41.580082, lon=120.450783], type: Xian...
inserted a new POI with UUID: 24200a86-8335-4005-9ba6-c04a0a43040e
processing line 70 with id:70, name:Pingquan Zhou [lat=41.006470, lon=118.680122], type: Zhou...
inserted a new POI with UUID: 2db81ded-3400-4ab1-97a4-f8a15a79b9b5
processing line 71 with id:71, name:Longmen [lat=40.779194, lon=115.572678], type: Xian...
inserted a new POI with UUID: b8791a24-8957-4c2f-b871-ed16ab609b6a
processing line 72 with id:72, name:Xianghuangdengsiqi Muchang [lat=41.234859, lon=114.774872], type: Muchang...
inserted a new POI with UUID: db25dc5c-1968-41e1-a20a-2adb69e972a3
processing line 73 with id:73, name:Duolunnuo'erting [lat=42.184219, lon=116.470955], type: Ting...
inserted a new POI with UUID: f596a5d0-fcc9-4cdc-a355-bf95b6ba7a9c
processing line 74 with id:74, name:Yumachang [lat=41.981422, lon=115.903275], type: Muchang...
inserted a new POI with UUID: e74e07b7-b81b-44fb-8338-b610c716adaa
processing line 75 with id:75, name:Huai'an [lat=40.461559, lon=114.465897], type: Xian...
inserted a new POI with UUID: 6e922099-2e96-4760-8289-ce24d5fe1adf
processing line 76 with id:76, name:Dushikouting [lat=41.313564, lon=115.711235], type: Xian...
inserted a new POI with UUID: 85c54d95-551b-4264-b361-35b6dba2fe15
processing line 77 with id:77, name:Huailai [lat=40.346069, lon=115.712349], type: Xian...
inserted a new POI with UUID: ca1e395c-cba4-454a-8457-7c5a43bf753b
processing line 78 with id:78, name:Yanqing Zhou [lat=40.459694, lon=115.968353], type: Zhou...
inserted a new POI with UUID: 311e00e0-7ecc-4fca-9f2f-889600b8bee9
processing line 79 with id:79, name:Bao'an Zhou [lat=40.376556, lon=115.214745], type: Zhou...
inserted a new POI with UUID: df2c73d8-016a-4f11-8402-658213fe018d
processing line 80 with id:80, name:Xining [lat=40.111378, lon=114.164383], type: Xian...
inserted a new POI with UUID: c5a751a6-fa6e-4e18-adfe-02c2c9be1299
processing line 81 with id:81, name:Wei Zhou [lat=39.840538, lon=114.569054], type: Zhou...
inserted a new POI with UUID: 058e7341-1d5b-4a60-81cf-67938e4a9ca7
processing line 82 with id:82, name:Chicheng [lat=40.913486, lon=115.813980], type: Xian...
inserted a new POI with UUID: 586dacf6-d926-4003-b532-93aab551bf18
processing line 83 with id:83, name:Xuanhua [lat=40.610363, lon=115.051147], type: Xian...
inserted a new POI with UUID: 838b576c-8da4-4bb1-b710-aa72470cc875
processing line 84 with id:84, name:Wanquan [lat=40.864902, lon=114.734733], type: Xian...
inserted a new POI with UUID: 930b8e4f-4869-4a82-9c33-1b2958b7e1d2
processing line 85 with id:85, name:Zhangjiakouting [lat=40.791256, lon=114.885941], type: Ting...
inserted a new POI with UUID: 0348b21f-489e-4f97-a223-5ef9e70ddbca
processing line 86 with id:86, name:Nanhe [lat=36.999573, lon=114.687309], type: Xian...
inserted a new POI with UUID: 9b170da6-58ce-457c-bdb8-fdf162eb7ed1
processing line 87 with id:87, name:Tangshan [lat=37.339809, lon=114.698692], type: Xian...
inserted a new POI with UUID: 3ea072bb-4aa2-4a10-ad88-8b8cab1ff7fc
processing line 88 with id:88, name:Pingxiang [lat=36.980137, lon=114.918419], type: Xian...
inserted a new POI with UUID: 41f9af2b-ed2d-4c5a-acea-42056927f897
processing line 89 with id:89, name:Julu [lat=37.212341, lon=115.022842], type: Xian...
inserted a new POI with UUID: 9f1fc7f8-f718-48eb-8d88-360c72315e97
processing line 90 with id:90, name:Guangzong [lat=37.068100, lon=115.146057], type: Xian...
inserted a new POI with UUID: f70d968a-0633-485f-b86c-88b10fdaf8aa
processing line 91 with id:91, name:Xingtai [lat=37.066357, lon=114.494263], type: Xian...
inserted a new POI with UUID: 68342ee3-2dd3-491b-a918-7ee75461ee59
processing line 92 with id:92, name:Neiqiu [lat=37.295002, lon=114.511864], type: Xian...
inserted a new POI with UUID: 0232dafc-6e80-4455-a207-df77d805a40f
processing line 93 with id:93, name:Shahe [lat=36.936829, lon=114.499619], type: Xian...
inserted a new POI with UUID: f5444dfd-94cb-478e-8ab7-fd7583a63394
processing line 94 with id:94, name:Ren Xian [lat=37.126076, lon=114.680740], type: Xian...
inserted a new POI with UUID: bda4dd88-2e7b-41f4-9fb3-7bb22f784533
processing line 95 with id:95, name:Ji Zhou [lat=40.043865, lon=117.401817], type: Zhou...
inserted a new POI with UUID: 94b502a6-1820-4df2-8181-47841ebbb8fc
processing line 96 with id:96, name:Baodi [lat=39.725895, lon=117.302422], type: Xian...
inserted a new POI with UUID: 32440bb5-72fa-40b0-9f5b-9114151a987a
processing line 97 with id:97, name:Pinggu [lat=40.136341, lon=117.112839], type: Xian...
inserted a new POI with UUID: 7d63c8ec-abc1-4211-a6a9-691f7e8eaa0c
processing line 98 with id:98, name:Shunyi [lat=40.127552, lon=116.641403], type: Xian...
inserted a new POI with UUID: dbfbb896-a4f5-4592-9114-f44a149367bc
processing line 99 with id:99, name:Changping Zhou [lat=40.222099, lon=116.223679], type: Xian...
inserted a new POI with UUID: f7fff09b-dc69-43d6-8297-2302cf43fa35
processing line 100 with id:100, name:Miyun [lat=40.371483, lon=116.840462], type: Xian...
inserted a new POI with UUID: 98a251c9-0b86-451a-a0d5-fc3005b9f385
processing line 101 with id:101, name:Huairou [lat=40.312084, lon=116.625610], type: Xian...
inserted a new POI with UUID: 36ccc8c7-d691-4060-acb7-9d25169f0cb9
processing line 102 with id:102, name:Gu'an [lat=39.435631, lon=116.301170], type: Xian...
inserted a new POI with UUID: e57c6e2a-f89a-413f-9abc-ff43861fb97c
processing line 103 with id:103, name:Tong Zhou [lat=39.905922, lon=116.658806], type: Zhou...
inserted a new POI with UUID: d8b5d6ba-26a5-4521-bfc5-7b7c986b6d28
processing line 104 with id:104, name:Zhuo Zhou [lat=39.487221, lon=115.968147], type: Zhou...
inserted a new POI with UUID: 3c43a338-fff4-43e4-b207-b0c13c38039a
processing line 105 with id:105, name:Dong'an [lat=39.370434, lon=116.743752], type: Xian...
inserted a new POI with UUID: 41a8ae21-2f1c-4c31-aefb-a171a2c7d785
processing line 106 with id:106, name:Liangxiang [lat=39.741253, lon=116.135582], type: Xian...
inserted a new POI with UUID: 847df51e-a2e2-4b73-8509-8cce914a35a5
processing line 107 with id:107, name:Yongqing [lat=39.325710, lon=116.490608], type: Xian...
inserted a new POI with UUID: 0c2989af-94c9-46a9-8eae-26133873c53a
processing line 108 with id:108, name:Fangshan [lat=39.710480, lon=115.984718], type: Xian...
inserted a new POI with UUID: effab95a-0c7c-429a-84b7-32b7d3140fd3
processing line 109 with id:109, name:Wanping [lat=39.931427, lon=116.368004], type: Xian...
inserted a new POI with UUID: 0bb4e5f2-b5ed-4b2a-9126-f76fd84acd39
processing line 110 with id:110, name:Xianghe [lat=39.765232, lon=116.995972], type: Xian...
inserted a new POI with UUID: 67e4da01-d166-4e91-87d0-f7d01f76daa7
processing line 111 with id:111, name:Wen'an [lat=38.864807, lon=116.464561], type: Xian...
inserted a new POI with UUID: 812069ae-75df-4ec2-b904-a09a0e3cf076
processing line 112 with id:112, name:Wuqing [lat=39.517601, lon=116.867287], type: Xian...
inserted a new POI with UUID: e32fe23e-6e35-41da-be2a-e130728e1837
processing line 113 with id:113, name:Dacheng [lat=38.695866, lon=116.621887], type: Xian...
inserted a new POI with UUID: 6bd6fdf0-36e8-447d-8e0b-300186719a0f
processing line 114 with id:114, name:Sanhe [lat=39.982788, lon=117.076118], type: Xian...
inserted a new POI with UUID: d0bf20eb-7f6f-4ae5-b12b-660c80aa2972
processing line 115 with id:115, name:Ninghe [lat=39.463554, lon=117.783150], type: Xian...
inserted a new POI with UUID: cf63b0e8-0570-48eb-8d85-6cfed7efef23
processing line 116 with id:116, name:Baoding [lat=39.006218, lon=116.366257], type: Xian...
inserted a new POI with UUID: 66b75706-2990-4edb-972b-800c3a47ca62
processing line 117 with id:117, name:Jinghai [lat=38.934357, lon=116.919083], type: Xian...
inserted a new POI with UUID: a642ca32-19ce-46c8-8148-672cdc4d03be
processing line 118 with id:118, name:Qing Xian [lat=38.580715, lon=116.825432], type: Xian...
inserted a new POI with UUID: 0742489e-6a87-4ed9-b3e4-6cf1e6859ddf
processing line 119 with id:119, name:Yanshan [lat=38.055328, lon=117.225540], type: Xian...
inserted a new POI with UUID: 7c697f1f-f08e-424f-b460-cb271652522f
processing line 120 with id:120, name:Nanpi [lat=38.037567, lon=116.696785], type: Xian...
inserted a new POI with UUID: 187ee253-2797-45f2-924e-bdb763a2f591
processing line 121 with id:121, name:Tianjin [lat=39.136971, lon=117.187820], type: Xian...
inserted a new POI with UUID: b8aef4db-375f-4d8e-a093-8fa3c8df0827
processing line 122 with id:122, name:Qingyun [lat=37.851643, lon=117.401329], type: Xian...
inserted a new POI with UUID: 8ea69b05-1896-49c0-a379-243f1714cba3
processing line 123 with id:123, name:Cang Zhou [lat=38.309002, lon=116.861969], type: Zhou...
inserted a new POI with UUID: 6cd11311-040d-426e-94b3-0e4abe1502a4
processing line 124 with id:124, name:Linyu [lat=40.010193, lon=119.770241], type: Xian...
inserted a new POI with UUID: e0144e00-3d0d-44fc-8e1e-d48e0a5a20fa
processing line 125 with id:125, name:Leting [lat=39.424881, lon=118.918282], type: Xian...
inserted a new POI with UUID: d80b2739-c5fe-460a-84b6-8dda0152928e
processing line 126 with id:126, name:Changli [lat=39.706974, lon=119.166412], type: Xian...
inserted a new POI with UUID: 82e743e7-7ab9-4d48-8bdd-c607df68ed0c
processing line 127 with id:127, name:Funing [lat=39.884670, lon=119.230164], type: Xian...
inserted a new POI with UUID: 7f7d756c-b56f-408b-905c-8bcae574c52d
processing line 128 with id:128, name:Qian'an [lat=40.008873, lon=118.691513], type: Xian...
inserted a new POI with UUID: 5db702cd-24b3-47b4-ae90-f18470b0e4ea
processing line 129 with id:129, name:Luancheng [lat=37.885780, lon=114.652695], type: Xian...
inserted a new POI with UUID: 5f5f3571-1c15-4533-b978-bcaf7ab20678
processing line 130 with id:130, name:Zanhuang [lat=37.662655, lon=114.376984], type: Xian...
inserted a new POI with UUID: 9cde3129-7ea0-44db-9c18-d031006a04b0
processing line 131 with id:131, name:Jin Zhou [lat=38.032494, lon=115.035423], type: Zhou...
inserted a new POI with UUID: 01a2c3ab-c9bd-4f5c-b87b-2460fa8a0e63
processing line 132 with id:132, name:Yuanshi [lat=37.750031, lon=114.508812], type: Xian...
inserted a new POI with UUID: cb69c245-2350-4e35-8abb-8d7233b1de45
processing line 133 with id:133, name:Wuji [lat=38.176727, lon=114.969360], type: Xian...
inserted a new POI with UUID: 296b67e1-4848-410d-9958-77f145654285
processing line 134 with id:134, name:Jingxing [lat=38.006161, lon=114.017784], type: Xian...
inserted a new POI with UUID: f9c1a4bd-f024-4e5c-aef2-bee00b387549
processing line 135 with id:135, name:Xinle [lat=38.395042, lon=114.787605], type: Xian...
inserted a new POI with UUID: db952552-3b2b-4111-ba23-5a6ea8195bfb
processing line 136 with id:136, name:Pingshan [lat=38.252403, lon=114.193924], type: Xian...
inserted a new POI with UUID: 83cec762-caea-40cf-b3b2-d653c4d8bfaf
processing line 137 with id:137, name:Lingshou [lat=38.305470, lon=114.365883], type: Xian...
inserted a new POI with UUID: a81713e0-1b03-4fc9-a239-f34b43481a49
processing line 138 with id:138, name:Hangtang [lat=38.436069, lon=114.543610], type: Xian...
inserted a new POI with UUID: cca243c9-dfed-498b-adc4-97ea586f1d3c
processing line 139 with id:139, name:Gaocheng [lat=38.036713, lon=114.834183], type: Xian...
inserted a new POI with UUID: 9faff9af-9203-4f61-ae2c-b6761b36ea4c
processing line 140 with id:140, name:Zhengding [lat=38.140110, lon=114.563644], type: Xian...
inserted a new POI with UUID: 82edea62-b322-4e48-b953-8b5be5f0d7ea
processing line 141 with id:141, name:Fuping [lat=38.853050, lon=114.187561], type: Xian...
inserted a new POI with UUID: 29fd9b4b-cb4b-44fb-a62a-26e5e1d6452a
processing line 142 with id:142, name:Huolu [lat=38.083111, lon=114.307724], type: Xian...
inserted a new POI with UUID: bef2bec0-c634-47ef-806a-4af1da8cd0a6
processing line 143 with id:208, name:Zhuanglang Ting [lat=36.736996, lon=103.258614], type: Ting...
inserted a new POI with UUID: 92cac37d-93a8-419d-b294-3c894f09cb3f
processing line 144 with id:209, name:Gaolan Xian [lat=36.047031, lon=103.847137], type: Xian...
inserted a new POI with UUID: 83ea083b-b763-4d24-9bef-cc166ce430a8
processing line 145 with id:210, name:Jingyuan Xian [lat=36.565273, lon=104.684288], type: Xian...
inserted a new POI with UUID: c0b4ab60-057c-413b-9963-18117462c52f
processing line 146 with id:211, name:Yancha Ting [lat=36.560551, lon=105.642319], type: Ting...
inserted a new POI with UUID: 5eac9d7e-0735-443c-91c0-8c22c003553b
processing line 147 with id:212, name:Dunhuang Xian [lat=40.140526, lon=94.650879], type: Xian...
inserted a new POI with UUID: 05f45ef7-b497-4c82-8530-291d36a7fe92
processing line 148 with id:213, name:Yumen Xian [lat=40.273872, lon=97.023842], type: Xian...
inserted a new POI with UUID: e1438a03-025a-4828-8d83-dbb6916de6bf
processing line 149 with id:214, name:Gaotai Xian [lat=39.381218, lon=99.820282], type: Xian...
inserted a new POI with UUID: 877fd196-1d4b-4671-a1be-0c63414c15bf
processing line 150 with id:215, name:Fuyi Ting [lat=39.314152, lon=100.060799], type: Ting...
inserted a new POI with UUID: cbea39bc-2212-4cf1-b1e7-27a71fcd6912
processing line 151 with id:216, name:Zhangye Xian [lat=38.933113, lon=100.449921], type: Xian...
inserted a new POI with UUID: 19b304a9-abf8-4be3-970e-623b38bfad5d
processing line 152 with id:217, name:Yongchang Xian [lat=38.246647, lon=101.969124], type: Xian...
inserted a new POI with UUID: 7b2c4098-f407-414c-90e7-39bc5afc213e
processing line 153 with id:218, name:Shandan Xian [lat=38.781105, lon=101.087959], type: Xian...
inserted a new POI with UUID: cbddac51-d9ce-49a9-aac8-ac72714da139
processing line 154 with id:219, name:Zhenfan Xian [lat=38.625671, lon=103.088844], type: Xian...
inserted a new POI with UUID: a445ef3c-e07a-441a-a9e6-571e6c7cafd9
processing line 155 with id:220, name:Ningshuo Xian [lat=38.466972, lon=106.273972], type: Xian...
inserted a new POI with UUID: c79122b4-9924-4dbc-a54e-f15f913c9b72
processing line 156 with id:221, name:Ningxia Xian [lat=38.466972, lon=106.273972], type: Xian...
inserted a new POI with UUID: ffc39dc6-94a1-445a-a5d9-7a49f779c8f7
processing line 157 with id:222, name:Ling Zhou [lat=38.088886, lon=106.328140], type: Zhou...
inserted a new POI with UUID: 62f9c23e-4678-49b2-b72e-556db0fb74c5
processing line 158 with id:223, name:Datong Xian [lat=37.032288, lon=101.540687], type: Xian...
inserted a new POI with UUID: 083a3bf6-3518-4272-b2cb-ca72d292b792
processing line 159 with id:224, name:Gulang Xian [lat=37.463989, lon=102.880882], type: Xian...
inserted a new POI with UUID: d6dd4424-9fe3-463c-b554-b2158c2bede2
processing line 160 with id:225, name:Wuwei Xian [lat=37.926918, lon=102.634697], type: Xian...
inserted a new POI with UUID: 16b929fb-539a-466d-8e82-a928e251773a
processing line 161 with id:226, name:Zhongwei Xian [lat=37.513248, lon=105.186607], type: Xian...
inserted a new POI with UUID: 36a0e620-fcea-43ad-9cd6-957d0282c337
processing line 162 with id:227, name:Guide Ting [lat=36.053295, lon=101.448204], type: Ting...
inserted a new POI with UUID: 848ce9a9-215e-4826-acb8-b540218b858e
processing line 163 with id:228, name:Xining Xian [lat=36.608856, lon=101.783936], type: Xian...
inserted a new POI with UUID: 1199ab6b-6bbf-47a5-be9e-86d039e5ca21
processing line 164 with id:229, name:Bayanrongge Ting [lat=36.093975, lon=102.269150], type: Ting...
inserted a new POI with UUID: a315a864-722e-46d0-b4ed-0d512932c54b
processing line 165 with id:230, name:Nianbo Xian [lat=36.487244, lon=102.394409], type: Xian...
inserted a new POI with UUID: a136300f-b5f4-4f54-bdb1-8fd803e83b4b
processing line 166 with id:231, name:Pingfan Xian [lat=36.736996, lon=103.258614], type: Xian...
inserted a new POI with UUID: 6a3d9bcb-868f-4c74-9e97-f0247c891ae5
processing line 167 with id:232, name:Guyuan Zhou [lat=36.014095, lon=106.278099], type: Zhou...
inserted a new POI with UUID: 1b097e75-1b90-4716-b57d-490b13b96609
processing line 168 with id:233, name:Anhua Xian [lat=36.005165, lon=107.876022], type: Xian...
inserted a new POI with UUID: 43bd74a1-de4e-4e35-bf65-886138f304d4
processing line 169 with id:234, name:Huan Xian [lat=36.573410, lon=107.304321], type: Xian...
inserted a new POI with UUID: 60d9a9a3-865d-4558-914a-9c57a85b4a58
processing line 170 with id:235, name:Heshui Xian [lat=36.018047, lon=108.116104], type: Xian...
inserted a new POI with UUID: c4f1cf78-4d75-4d28-a069-b110ec3a3f1e
processing line 171 with id:236, name:Xunhua Ting [lat=35.846066, lon=102.480789], type: Ting...
inserted a new POI with UUID: 6325fb83-bc0a-484e-88bf-b3347c1e34d1
processing line 172 with id:237, name:He Zhou [lat=35.607285, lon=103.211174], type: Zhou...
inserted a new POI with UUID: a69902c9-6777-4036-9a82-05cbfb156b66
processing line 173 with id:238, name:Didao Zhou [lat=35.379147, lon=103.857941], type: Zhou...
inserted a new POI with UUID: 48934ed2-6c8e-4065-8fc7-c3a027226089
processing line 174 with id:239, name:Longxi Xian [lat=35.007137, lon=104.635605], type: Xian...
inserted a new POI with UUID: 96ea8e37-83bc-4f36-8e50-d68624425533
processing line 175 with id:240, name:Weiyuan Xian [lat=35.139488, lon=104.210167], type: Xian...
inserted a new POI with UUID: e526fdcf-f21a-4517-a328-af5bddae5af3
processing line 176 with id:241, name:Anding Xian [lat=35.575092, lon=104.620308], type: Xian...
inserted a new POI with UUID: e0151055-16c1-4a02-9aab-8ca0feddf6c0
processing line 177 with id:242, name:Jin Xian [lat=35.846821, lon=104.107872], type: Xian...
inserted a new POI with UUID: 0818283c-5faf-43ea-9c23-f452a2db98bb
processing line 178 with id:243, name:Huining Xian [lat=35.694199, lon=105.056137], type: Xian...
inserted a new POI with UUID: fbf1287e-1e6b-44ef-9461-183282fb414d
processing line 179 with id:244, name:Tongwei Xian [lat=35.213928, lon=105.249489], type: Xian...
inserted a new POI with UUID: ab2c9e27-fa6c-443b-aca4-2a38535b59fa
processing line 180 with id:245, name:Jingning Zhou [lat=35.524097, lon=105.728821], type: Zhou...
inserted a new POI with UUID: e7be163b-59ad-436d-8e8e-853dc8099cd9
processing line 181 with id:246, name:Pingliang Xian [lat=35.535847, lon=106.685661], type: Xian...
inserted a new POI with UUID: 718cfcce-0fbe-49c1-b6be-6cde4a4c9fbd
processing line 182 with id:247, name:Huating Xian [lat=35.218842, lon=106.651955], type: Xian...
inserted a new POI with UUID: e1e57f76-d0f0-4c29-884f-ad47cd4262fc
processing line 183 with id:248, name:Longde Xian [lat=35.617092, lon=106.122238], type: Xian...
inserted a new POI with UUID: 7d02fb49-1fbb-4a7b-aed9-edcf7dcc6de8
processing line 184 with id:249, name:Ning Zhou [lat=35.501427, lon=107.930466], type: Zhou...
inserted a new POI with UUID: 3d12c2b5-e891-49e4-a4bf-3e45708d933b
processing line 185 with id:250, name:Chongxin Xian [lat=35.305904, lon=107.045731], type: Xian...
inserted a new POI with UUID: c3e89aee-9598-4b2e-8608-8e10aaa595dc
processing line 186 with id:251, name:Lingtai Xian [lat=35.071903, lon=107.616302], type: Xian...
inserted a new POI with UUID: d0fadb21-dbf4-47d8-becb-9589ad07eff7
processing line 187 with id:252, name:Zhenyuan Xian [lat=35.683887, lon=107.196808], type: Xian...
inserted a new POI with UUID: 11e9304c-1a15-4b07-89ec-a03c202b558a
processing line 188 with id:253, name:Zhuonisi [lat=34.598072, lon=103.507584], type: Tusi...
inserted a new POI with UUID: 620d82ff-46e8-4e05-8f4f-d95306f46778
processing line 189 with id:254, name:Taozhou Ting [lat=34.676853, lon=103.669266], type: Ting...
inserted a new POI with UUID: 6028282a-6b68-4ffa-83ad-e8e4b6e0de84
processing line 190 with id:255, name:Zhang Xian [lat=34.850636, lon=104.472137], type: Xian...
inserted a new POI with UUID: 8f1ba7d5-ea68-41ab-ad0a-c23964a2f1a0
processing line 191 with id:256, name:Ningyuan Xian [lat=34.720016, lon=104.885292], type: Xian...
inserted a new POI with UUID: f03bd7d0-4ff2-42f9-84a6-a01850825454
processing line 192 with id:257, name:Min Zhou [lat=34.436455, lon=104.030251], type: Zhou...
inserted a new POI with UUID: e14d372c-63f4-4f3b-9f7e-0b25f84b2300
processing line 193 with id:258, name:Fuqiang Xian [lat=34.739437, lon=105.329079], type: Xian...
inserted a new POI with UUID: a7691413-ce90-47a8-bbf1-b088acf77d10
processing line 194 with id:259, name:Qin'an Xian [lat=34.863220, lon=105.672707], type: Xian...
inserted a new POI with UUID: 022a6f59-fb00-44e9-8ce6-cd823d59dd67
processing line 195 with id:260, name:Xihe Xian [lat=34.011929, lon=105.290726], type: Xian...
inserted a new POI with UUID: 3d1b93a7-bac9-4efc-976b-b1f63d78cc7d
processing line 196 with id:261, name:Sancha Ting [lat=34.502998, lon=106.416092], type: Ting...
inserted a new POI with UUID: 1fd96e21-bf92-4401-b465-3a1442658a80
processing line 197 with id:262, name:Qingshui Xian [lat=34.746304, lon=106.136581], type: Xian...
inserted a new POI with UUID: b33adac5-a50b-4ef9-a8f4-923c7830e5a0
processing line 198 with id:263, name:Cheng Xian [lat=33.743565, lon=105.730316], type: Xian...
inserted a new POI with UUID: deafed1b-a235-4bb0-979f-915828985803
processing line 199 with id:264, name:Liangdang Xian [lat=33.909630, lon=106.298553], type: Xian...
inserted a new POI with UUID: b701cf4d-1f7e-4982-8347-a5e5ede1a031
processing line 200 with id:265, name:Hui Xian [lat=33.777554, lon=106.086670], type: Xian...
inserted a new POI with UUID: eec37e66-b7c6-444c-a4de-ce0501133aa7
processing line 201 with id:266, name:Wen Xian [lat=32.948002, lon=104.678078], type: Xian...
inserted a new POI with UUID: a159541c-a626-488d-b95b-527208df28f5
processing line 202 with id:267, name:Pingluo Xian [lat=38.906406, lon=106.542938], type: Xian...
inserted a new POI with UUID: 4536fd71-0d8e-449e-ab61-fab043b8ea04
processing line 203 with id:268, name:Li Xian [lat=34.191364, lon=105.178291], type: Xian...
inserted a new POI with UUID: ad273615-5574-41cd-838b-a9d8c48a15a3
processing line 204 with id:269, name:Lechang Xian [lat=25.134874, lon=113.346794], type: Xian...
inserted a new POI with UUID: 762361bc-2193-49a8-be41-f7c0382c435f
processing line 205 with id:270, name:Renhua Xian [lat=25.090054, lon=113.743118], type: Xian...
inserted a new POI with UUID: 99008d5f-e693-40d4-ac82-84b415e87a16
processing line 206 with id:271, name:Yangshan Xian [lat=24.485014, lon=112.638267], type: Xian...
inserted a new POI with UUID: 4a5742df-e1e6-4e46-811e-a767f7c1eba8
processing line 207 with id:272, name:Qujiang Xian [lat=24.810209, lon=113.603417], type: Xian...
inserted a new POI with UUID: 3bfaeacf-9e9d-464a-9f14-ea1a8a04e1fe
processing line 208 with id:273, name:Ruyuan Xian [lat=24.784000, lon=113.269000], type: Xian...
inserted a new POI with UUID: 47cb4888-f1b2-4da5-bede-e19b5a4a1739
processing line 209 with id:274, name:Yingde Xian [lat=24.172937, lon=113.402077], type: Xian...
inserted a new POI with UUID: 2458198c-79ea-4be0-adda-101c3907b370
processing line 210 with id:275, name:Wengyuan Xian [lat=24.375137, lon=113.820320], type: Xian...
inserted a new POI with UUID: 993c2454-823f-4ff3-bfeb-a7e304f5896e
processing line 211 with id:276, name:Changning Xian [lat=24.062494, lon=114.201706], type: Xian...
inserted a new POI with UUID: f9c24c48-a366-4d06-8179-b30da6ee1707
processing line 212 with id:277, name:Lianping Zhou [lat=24.357727, lon=114.482353], type: Zhou...
inserted a new POI with UUID: 41dd616c-d258-4db8-b9d0-91497dadce01
processing line 213 with id:278, name:Shixing Xian [lat=24.945763, lon=114.063148], type: Xian...
inserted a new POI with UUID: 6509bfcc-1246-4217-90f1-2d1891444cf0
processing line 214 with id:279, name:Heping Xian [lat=24.439734, lon=114.932358], type: Xian...
inserted a new POI with UUID: e18cd0b4-e033-47bc-ba96-fa987e67a298
processing line 215 with id:280, name:Pingyuan Xian [lat=24.811316, lon=115.881264], type: Xian...
inserted a new POI with UUID: ae2af72d-9bf7-44e0-997f-6522611b05c2
processing line 216 with id:281, name:Changle Xian [lat=24.066050, lon=115.616440], type: Xian...
inserted a new POI with UUID: e2ff8725-5602-4e3c-8de7-b261a9c8ce3c
processing line 217 with id:282, name:Xingning Xian [lat=24.138691, lon=115.727348], type: Xian...
inserted a new POI with UUID: c32fe01c-5d66-4a55-a269-dca50a6eea71
processing line 218 with id:283, name:Longchuan Xian [lat=24.060003, lon=115.186172], type: Xian...
inserted a new POI with UUID: cb0754d9-2abf-42fe-8729-d3b199b0c4fc
processing line 219 with id:284, name:Dapu Xian [lat=24.517746, lon=116.685440], type: Xian...
inserted a new POI with UUID: 307676e7-89e8-410a-971f-7e3ae15f89ed
processing line 220 with id:285, name:Kaijian Xian [lat=23.758680, lon=111.804092], type: Xian...
inserted a new POI with UUID: 000fae75-4b19-493d-b965-49748807b294
processing line 221 with id:286, name:Fengchuan Xian [lat=23.400047, lon=111.509407], type: Xian...
inserted a new POI with UUID: 70204bab-8bd2-48f3-a958-b3f07cf4db31
processing line 222 with id:287, name:Deqing Zhou [lat=23.146791, lon=111.771019], type: Zhou...
inserted a new POI with UUID: e8e6fcfc-79be-4838-a4e4-d6c6d8447070
processing line 223 with id:288, name:Xining Xian [lat=23.145523, lon=111.540558], type: Xian...
inserted a new POI with UUID: c21825eb-a4a2-4766-8fc6-b1d1411c3dec
processing line 224 with id:289, name:Gaoyao Xian [lat=23.056921, lon=112.453155], type: Xian...
inserted a new POI with UUID: 398ae475-b761-430b-8332-d92bf5187604
processing line 225 with id:290, name:Guangning Xian [lat=23.642736, lon=112.431320], type: Xian...
inserted a new POI with UUID: 90605034-d524-46be-aadd-182a7abd66c0
processing line 226 with id:291, name:Sihui Xian [lat=23.348709, lon=112.694534], type: Xian...
inserted a new POI with UUID: 079a8193-8863-4395-b740-888f6deca88d
processing line 227 with id:292, name:Dongwan Xian [lat=23.046623, lon=113.749817], type: Xian...
inserted a new POI with UUID: 02baf366-7859-4991-a286-4fcaa7142810
processing line 228 with id:293, name:Conghua Xian [lat=23.555426, lon=113.581101], type: Xian...
inserted a new POI with UUID: 38fbee97-a509-42c1-8202-6ac3e96adf73
processing line 229 with id:294, name:Qingyuan Xian [lat=23.720728, lon=113.022133], type: Xian...
inserted a new POI with UUID: 3e33ecab-b850-4e08-af0f-d49b14dbc73e
processing line 230 with id:295, name:Zengcheng Xian [lat=23.293000, lon=113.829000], type: Xian...
inserted a new POI with UUID: 989a4c13-056c-426b-80c6-ba8444ae259d
processing line 231 with id:296, name:Huaxian Xian [lat=23.460484, lon=113.272987], type: Xian...
inserted a new POI with UUID: 1aba7063-8e9f-4bb1-9190-4911e2419d58
processing line 232 with id:297, name:Guishan Xian [lat=23.095236, lon=114.448378], type: Xian...
inserted a new POI with UUID: 17bc49b8-fd20-472a-a1a8-2645da823ba0
processing line 233 with id:298, name:Heyuan Xian [lat=23.736834, lon=114.691460], type: Xian...
inserted a new POI with UUID: 4a03d401-db35-43cc-8733-3cd13bce0054
processing line 234 with id:299, name:Longmen [lat=23.739285, lon=114.243088], type: Xian...
inserted a new POI with UUID: 1ddf058a-7766-46b7-890a-3e6069cac0f5
processing line 235 with id:300, name:Yong'an Xian [lat=23.643053, lon=115.173058], type: Xian...
inserted a new POI with UUID: 0c3b3839-027d-4743-8819-3664e14a3111
processing line 236 with id:301, name:Chaoyang Xian [lat=23.260954, lon=116.594063], type: Xian...
inserted a new POI with UUID: d030d9b3-2151-4820-9761-0ec8a57c49ea
processing line 237 with id:302, name:Jieyang Xian [lat=23.542976, lon=116.349769], type: Xian...
inserted a new POI with UUID: 4a5844f8-af81-4b54-8afd-975d64219a78
processing line 238 with id:303, name:Raoping Xian [lat=23.982000, lon=116.823000], type: Xian...
inserted a new POI with UUID: 2b152426-4ec8-443e-8b3c-a518d93d0c12
processing line 239 with id:304, name:Huilai Xian [lat=23.039129, lon=116.288513], type: Xian...
inserted a new POI with UUID: 92a89b7e-de44-4b24-9e88-061029460429
processing line 240 with id:305, name:Puning Xian [lat=23.442000, lon=116.206000], type: Xian...
inserted a new POI with UUID: 823a3174-6035-4a87-9bbb-efb0f2bafdd8
processing line 241 with id:306, name:Lingshan Xian [lat=22.434591, lon=109.287415], type: Xian...
inserted a new POI with UUID: 4953eab0-5dea-44e6-8fad-6e35868c608d
processing line 242 with id:307, name:Xinyi Xian [lat=22.208302, lon=110.873207], type: Xian...
inserted a new POI with UUID: 6b6ee0ed-6951-4d18-a4df-7cd013e40867
processing line 243 with id:308, name:Yangchun Xian [lat=22.175907, lon=111.790680], type: Xian...
inserted a new POI with UUID: 3c9b8f25-d268-4640-a500-27f7d544d9bb
processing line 244 with id:309, name:Kaiping Xian [lat=22.478264, lon=112.544548], type: Xian...
inserted a new POI with UUID: 713e5d8f-2a61-46b4-aa0d-d9ab21f3509b
processing line 245 with id:310, name:Dong'an Xian [lat=22.933193, lon=112.039993], type: Xian...
inserted a new POI with UUID: 8447a068-0582-4337-9cfe-6750d3e48178
processing line 246 with id:311, name:Gaoming Xian [lat=22.862335, lon=112.695587], type: Xian...
inserted a new POI with UUID: 61c16c09-dd84-476b-b5c1-8500ae7c7977
processing line 247 with id:312, name:Enping Xian [lat=22.191948, lon=112.307472], type: Xian...
inserted a new POI with UUID: b0f92997-35b1-4432-bb15-7dbcd525eed6
processing line 248 with id:313, name:Xinning Xian [lat=22.251373, lon=112.794418], type: Xian...
inserted a new POI with UUID: ed296ec0-9845-4a7d-9886-b63ffebd52bc
processing line 249 with id:314, name:Xinxing Xian [lat=22.702915, lon=112.225082], type: Xian...
inserted a new POI with UUID: d0e86c44-6f46-41ec-8ee2-75714ffbee92
processing line 250 with id:315, name:Xinhui Xian [lat=22.526581, lon=113.038399], type: Xian...
inserted a new POI with UUID: 9821898e-788f-4d96-a357-87859e80b0ab
processing line 251 with id:316, name:Xin'an Xian [lat=22.545151, lon=113.918579], type: Xian...
inserted a new POI with UUID: 2fafb3e5-0570-40be-aeff-a44b4b552532
processing line 252 with id:317, name:Shunde Xian [lat=22.847860, lon=113.253921], type: Xian...
inserted a new POI with UUID: ea4b76b8-0bac-4c17-b5bb-d7e8aa33e5a8
processing line 253 with id:318, name:Lufeng Xian [lat=22.948467, lon=115.641083], type: Xian...
inserted a new POI with UUID: 2723ceea-552d-4b86-ada4-dd500192fe48
processing line 254 with id:319, name:Haifeng Xian [lat=22.976000, lon=115.335000], type: Xian...
inserted a new POI with UUID: f97c2492-263e-44b7-a22b-a223af74d482
processing line 255 with id:320, name:Qin Zhou [lat=21.951426, lon=108.614395], type: Zhou...
inserted a new POI with UUID: c62f1966-478b-4db3-b914-1609fe471343
processing line 256 with id:321, name:Hepu Xian [lat=21.670145, lon=109.190040], type: Xian...
inserted a new POI with UUID: 10d07bc0-ab3f-4bb5-981e-e13d8a6eb7a3
processing line 257 with id:322, name:Suixi Xian [lat=21.382980, lon=110.250893], type: Xian...
inserted a new POI with UUID: 14ace73c-769e-41a1-b5e0-1e0a7313b65f
processing line 258 with id:323, name:Maoming Xian [lat=21.919214, lon=110.853813], type: Xian...
inserted a new POI with UUID: 4e45cb48-a887-4615-b375-763630d86766
processing line 259 with id:324, name:Wuchuan Xian [lat=21.350586, lon=110.682602], type: Xian...
inserted a new POI with UUID: 2a9b440a-5a69-4d81-bc4f-b8c9b476f663
processing line 260 with id:325, name:Shicheng Xian [lat=21.593603, lon=110.273559], type: Xian...
inserted a new POI with UUID: 7e6635e7-da93-4ed0-8bc1-1d2b2ff8d46d
processing line 261 with id:326, name:Dianbai Xian [lat=21.512405, lon=111.293335], type: Xian...
inserted a new POI with UUID: 13c9ad1f-fb90-4389-a071-3ff74ec0fd71
processing line 262 with id:327, name:Yangjiang Xian [lat=21.845419, lon=111.958946], type: Xian...
inserted a new POI with UUID: ef280687-2a33-40d0-89c5-3bcd44183e2b
processing line 263 with id:328, name:Haikang Xian [lat=20.901958, lon=110.087914], type: Xian...
inserted a new POI with UUID: 75ea6cbf-6ea5-48ed-91e7-2a97dd459428
processing line 264 with id:329, name:Lingao Xian [lat=19.918070, lon=109.686165], type: Xian...
inserted a new POI with UUID: d5a5693f-de90-4828-8a51-11e4b20e3c8a
processing line 265 with id:330, name:Dan Zhou [lat=19.716700, lon=109.313065], type: Zhou...
inserted a new POI with UUID: d12e82f3-fc8e-4d87-9f8f-8c12f55b8bf2
processing line 266 with id:331, name:Lehui Xian [lat=19.148970, lon=110.467567], type: Xian...
inserted a new POI with UUID: 8f743d1b-340e-4750-a689-f8869dc2dfcf
processing line 267 with id:332, name:Huitong Xian [lat=19.296394, lon=110.507820], type: Xian...
inserted a new POI with UUID: cf3858a2-ec3a-44cd-8b31-73568b7fb782
processing line 268 with id:333, name:Ding'an Xian [lat=19.702471, lon=110.318123], type: Xian...
inserted a new POI with UUID: f0c45ca1-0807-45c8-bb09-b7f65cd5c52b
processing line 269 with id:334, name:Wenchang Xian [lat=19.620953, lon=110.755898], type: Xian...
inserted a new POI with UUID: 72a4bd11-4b7d-40ee-9bd2-2811f1730b08
processing line 270 with id:335, name:Qiongshan Xian [lat=20.008000, lon=110.358000], type: Xian...
inserted a new POI with UUID: 03a6812f-8d0f-493b-a990-bdb6df5e6b2f
processing line 271 with id:336, name:Lingshui Xian [lat=18.505363, lon=110.033920], type: Xian...
inserted a new POI with UUID: 958295ff-4948-47c8-9a47-4c0b9d0ae4d8
processing line 272 with id:337, name:Ya Zhou [lat=18.375464, lon=109.166977], type: Zhou...
inserted a new POI with UUID: 429209be-fa54-4a0b-a719-010299709d61
processing line 273 with id:338, name:Wan Zhou [lat=18.800625, lon=110.407471], type: Zhou...
inserted a new POI with UUID: b0db726b-1848-4df3-9420-bc45e4d172bc
processing line 274 with id:339, name:Sanshui Xian [lat=23.165869, lon=112.886070], type: Xian...
inserted a new POI with UUID: 91a9949d-aa80-407d-a5b4-18e1bb17623e
processing line 275 with id:340, name:Nanhai Xian [lat=23.134624, lon=113.256066], type: Xian...
inserted a new POI with UUID: a19ff059-15d9-4934-8c5e-cf0cc62c9508
processing line 276 with id:341, name:Xiangshan Xian [lat=22.525810, lon=113.373604], type: Xian...
inserted a new POI with UUID: 572faca7-d084-45bc-a5e3-af1e8044cf7a
processing line 277 with id:342, name:Zhenping Xian [lat=24.651356, lon=116.170181], type: Xian...
inserted a new POI with UUID: 88f344d8-05f3-493a-87e0-47454d3a9f6c
processing line 278 with id:343, name:Heshan Xian [lat=22.644087, lon=112.823670], type: Xian...
inserted a new POI with UUID: a8c44a21-1da2-4654-be31-125b0d13af9a
processing line 279 with id:344, name:Xuwen Xian [lat=20.329676, lon=110.162781], type: Xian...
inserted a new POI with UUID: 02a1769f-5e9e-4902-b5ed-d35589ea029f
processing line 280 with id:345, name:Fengshun Xian [lat=23.951487, lon=116.201851], type: Xian...
inserted a new POI with UUID: f8703aa9-e3fc-40c9-9805-297987df9e4d
processing line 281 with id:346, name:Changhua Xian [lat=19.315586, lon=108.670511], type: Xian...
inserted a new POI with UUID: b3c534b4-728e-45b4-833a-39b9ccc4773d
processing line 282 with id:347, name:Boluo Xian [lat=23.172247, lon=114.273606], type: Xian...
inserted a new POI with UUID: 20a7ffb5-28f4-47e1-92c4-7a97c4267d3a
processing line 283 with id:348, name:Fanyu Xian [lat=23.134624, lon=113.256066], type: Xian...
inserted a new POI with UUID: 396ed41f-5e76-491b-b6dd-256af49db188
processing line 284 with id:349, name:Chengmai Xian [lat=19.960694, lon=110.111256], type: Xian...
inserted a new POI with UUID: bc3c5140-4795-4fdf-9526-84cc2e56673d
processing line 285 with id:350, name:Haiyang Xian [lat=23.667706, lon=116.636658], type: Xian...
inserted a new POI with UUID: eb71867a-f854-46c2-8a98-8e51fe11d76d
processing line 286 with id:351, name:Yongning Zhou [lat=25.167824, lon=109.766678], type: Zhou...
inserted a new POI with UUID: 1285a5ef-4ed0-4bce-90cd-9669d0734947
processing line 287 with id:352, name:Yongfu Xian [lat=24.981726, lon=109.980125], type: Xian...
inserted a new POI with UUID: a42984a0-fd41-42b5-ab2b-5589e11123d5
processing line 288 with id:353, name:Huaiyuan Xian [lat=25.374170, lon=109.412598], type: Xian...
inserted a new POI with UUID: be782955-d93a-4ac7-8ab5-a5c89a4ac56d
processing line 289 with id:354, name:Rong Xian [lat=25.065443, lon=109.248543], type: Xian...
inserted a new POI with UUID: 16b4135f-7c57-4877-8c42-94ba621b01e7
processing line 290 with id:355, name:Yining Xian [lat=25.375401, lon=110.063301], type: Xian...
inserted a new POI with UUID: f591c1ad-edfd-41a0-b0c0-b9b88f5b58b2
processing line 291 with id:356, name:Lingui Xian [lat=25.280060, lon=110.286263], type: Xian...
inserted a new POI with UUID: 42054304-3bcc-4a8d-9d3e-466b808e8bc4
processing line 292 with id:357, name:Xing'an Xian [lat=25.613132, lon=110.665871], type: Xian...
inserted a new POI with UUID: 246f05b1-84a6-494c-8491-28140537a22c
processing line 293 with id:358, name:Lingchuan Xian [lat=25.463203, lon=110.383690], type: Xian...
inserted a new POI with UUID: 9a22e791-f13b-49e1-8a6a-5cfbd870df04
processing line 294 with id:359, name:Longsheng Ting [lat=25.794008, lon=110.008949], type: Ting...
inserted a new POI with UUID: d19e873f-de0b-47a3-a776-447095143d3d
processing line 295 with id:360, name:Quan Zhou [lat=25.931814, lon=111.065002], type: Zhou...
inserted a new POI with UUID: 349048f9-5d93-4cbf-90cd-f5482fede932
processing line 296 with id:361, name:Guanyang Xian [lat=25.488653, lon=111.144691], type: Xian...
inserted a new POI with UUID: efe1acda-597d-4307-9220-106005b266a2
processing line 297 with id:362, name:Xilin Xian [lat=24.325756, lon=105.663643], type: Xian...
inserted a new POI with UUID: b1a13246-0816-404c-bad0-c844ff4f8d72
processing line 298 with id:363, name:Xilong Zhou [lat=24.781130, lon=105.331329], type: Zhou...
inserted a new POI with UUID: 2ea192f4-eb1f-4830-909d-7ff6be1201f5
processing line 299 with id:364, name:Lingyun Xian [lat=24.348549, lon=106.575722], type: Xian...
inserted a new POI with UUID: dcd1cd62-3297-48aa-bf42-54eb8dae7489
processing line 300 with id:365, name:Donglan Zhou [lat=24.520552, lon=107.372627], type: Zhou...
inserted a new POI with UUID: bcdb955f-e5d3-48b7-9eed-0b3229e39093
processing line 301 with id:366, name:Nandan Zhou [lat=24.983593, lon=107.534828], type: Zhou...
inserted a new POI with UUID: 3a7f885f-3d29-4d86-960c-606c88af8233
processing line 302 with id:367, name:Nadi Zhou [lat=24.822300, lon=107.414436], type: Zhou...
inserted a new POI with UUID: dbb48346-6bbb-41d7-894f-8e7dc073b879
processing line 303 with id:368, name:Hechi Zhou [lat=24.703178, lon=107.844444], type: Zhou...
inserted a new POI with UUID: 76dfba07-e9c7-4d78-a5ec-510d93830016
processing line 304 with id:369, name:Yongdingsi [lat=24.312263, lon=108.612404], type: Tusi...
inserted a new POI with UUID: bbfedd38-95b8-45ae-a8ca-ca26b0e7ca26
processing line 305 with id:370, name:Yongshunzhengsi [lat=24.378677, lon=108.097023], type: Tusi...
inserted a new POI with UUID: 70160471-aa48-483a-9faa-6ab0cbe40b6f
processing line 306 with id:371, name:Yongshunfusi [lat=24.584080, lon=108.790596], type: Tusi...
inserted a new POI with UUID: 2d87e14f-597a-4530-9dde-7e6590caf444
processing line 307 with id:372, name:Tianhe Xian [lat=24.777641, lon=108.695244], type: Xian...
inserted a new POI with UUID: fd1b7dcc-e08c-430f-adfe-7a74cbe51a04
processing line 308 with id:373, name:Xincheng Xian [lat=24.064043, lon=108.660469], type: Xian...
inserted a new POI with UUID: a7a720b3-0bf1-4892-b292-db7dbe06a1b2
processing line 309 with id:374, name:Yishan Xian [lat=24.490730, lon=108.655884], type: Xian...
inserted a new POI with UUID: a410712c-972e-4c9d-aa4b-cc2fbbecbc45
processing line 310 with id:375, name:Si'en Xian [lat=24.829609, lon=108.256378], type: Xian...
inserted a new POI with UUID: 3d1ede40-1c68-4927-84a2-fe1d35d56656
processing line 311 with id:376, name:Luocheng Xian [lat=24.781826, lon=108.898415], type: Xian...
inserted a new POI with UUID: e963e0b5-f8fb-4248-a38c-a0f82f55c11e
processing line 312 with id:377, name:Maping Xian [lat=24.309988, lon=109.404396], type: Xian...
inserted a new POI with UUID: 78ec5add-f994-4e5f-9dde-40f5c6ed511f
processing line 313 with id:378, name:Liucheng Xian [lat=24.527336, lon=109.260117], type: Xian...
inserted a new POI with UUID: 1e9a1865-2063-43d9-aeb6-65e204c27abf
processing line 314 with id:379, name:Luorong Xian [lat=24.414520, lon=109.609100], type: Xian...
inserted a new POI with UUID: 2fa43128-f5b1-447f-8c84-957babed5853
processing line 315 with id:380, name:Yong'an Zhou [lat=24.203249, lon=110.519798], type: Zhou...
inserted a new POI with UUID: d36729c2-5deb-460c-aa47-b11ca822fef6
processing line 316 with id:381, name:Pingle Xian [lat=24.635727, lon=110.646500], type: Xian...
inserted a new POI with UUID: 5bb31260-9047-46cd-a1e5-5e46991c4abe
processing line 317 with id:382, name:Xiuren Fu [lat=24.420544, lon=110.241463], type: Xian...
inserted a new POI with UUID: 699932af-8ec0-448c-be3a-bf94b1fd2367
processing line 318 with id:383, name:Yangshuo Fu [lat=24.777758, lon=110.483627], type: Xian...
inserted a new POI with UUID: 1d1a293c-11d1-4b98-a61c-7dd3cb78d400
processing line 319 with id:384, name:Gongcheng Xian [lat=24.832979, lon=110.821968], type: Xian...
inserted a new POI with UUID: ee4b28b6-574d-4da3-853c-ffda7c19f8e7
processing line 320 with id:385, name:Lipu Xian [lat=24.496014, lon=110.391197], type: Xian...
inserted a new POI with UUID: 43e7ff1e-e24a-47bf-bbdf-ade638cd1645
processing line 321 with id:386, name:Zhaoping Xian [lat=24.169123, lon=110.803612], type: Xian...
inserted a new POI with UUID: 7d1b6330-9a9e-439f-aa31-f8ddcf62cac0
processing line 322 with id:387, name:Fuchuan Xian [lat=24.824177, lon=111.265091], type: Xian...
inserted a new POI with UUID: 18c218c1-0045-4df0-9594-7ba90859737c
processing line 323 with id:388, name:He Xian [lat=24.336819, lon=111.658852], type: Xian...
inserted a new POI with UUID: 00a525f3-6d2a-4696-a0a0-c771a0e10aad
processing line 324 with id:389, name:Xiaozhen'an Ting [lat=23.412697, lon=105.840088], type: Ting...
inserted a new POI with UUID: bfece321-8ac8-46a1-8900-5275d9e23209
processing line 325 with id:390, name:Shangying Zhou [lat=23.080128, lon=106.944534], type: Zhou...
inserted a new POI with UUID: 9cb6c202-5288-464a-9a3e-7a40931f4501
processing line 326 with id:391, name:Tianbao Xian [lat=23.332321, lon=106.608353], type: Xian...
inserted a new POI with UUID: 444aa7a9-706d-442e-accb-7f985b0d54c1
processing line 327 with id:392, name:Baise Ting [lat=23.904539, lon=106.611679], type: Ting...
inserted a new POI with UUID: 6987a9ab-c131-4a54-ba0a-76ebffc4f838
processing line 328 with id:393, name:Fengyi Zhou [lat=23.710442, lon=106.874886], type: Zhou...
inserted a new POI with UUID: 558a8557-3750-41d9-9f46-793e4053c4d3
processing line 329 with id:394, name:Guishun Zhou [lat=23.142054, lon=106.415894], type: Zhou...
inserted a new POI with UUID: 3cad68ab-9290-4220-a821-a13bdfde4689
processing line 330 with id:395, name:Xiangwu Zhou [lat=23.234190, lon=106.960243], type: Zhou...
inserted a new POI with UUID: ad10112e-5ff0-4b94-8a19-716f466dab2f
processing line 331 with id:396, name:Yangwan Zhou [lat=23.734009, lon=106.772163], type: Zhou...
inserted a new POI with UUID: e00062c6-ad60-4c1e-bab5-0229e74f47b7
processing line 332 with id:397, name:Tian Zhou [lat=23.733870, lon=106.908669], type: Zhou...
inserted a new POI with UUID: 2135a433-cfda-447b-b17f-62feb751ee6d
processing line 333 with id:398, name:Shanglin Xian [lat=23.442163, lon=108.591141], type: Xian...
inserted a new POI with UUID: fd59ac1e-7c1e-4a30-8e9d-afeb8f29d4f2
processing line 334 with id:399, name:Jiuchengsi [lat=23.563625, lon=107.678215], type: Tusi...
inserted a new POI with UUID: bafacf68-ec9b-4a30-be50-ce76114ab067
processing line 335 with id:400, name:Guide Zhou [lat=23.348038, lon=107.637619], type: Zhou...
inserted a new POI with UUID: cc495df3-b503-4fec-b187-1c7ccc18936a
processing line 336 with id:401, name:Long'an Xian [lat=23.178167, lon=107.684952], type: Xian...
inserted a new POI with UUID: 9888a07a-e59a-412e-94f0-bccbd7563580
processing line 337 with id:402, name:Namasi [lat=23.558043, lon=107.989128], type: Tusi...
inserted a new POI with UUID: 11d0f359-35fe-4c81-96eb-1c95c55ed867
processing line 338 with id:403, name:Duyangsi [lat=23.978905, lon=107.649536], type: Tusi...
inserted a new POI with UUID: 7448cbec-4a81-474f-acba-3b2bb51d8b6d
processing line 339 with id:404, name:Dujie Zhou [lat=23.192860, lon=107.464417], type: Zhou...
inserted a new POI with UUID: 59691d0c-169a-4471-a62f-d91ef2df0936
processing line 340 with id:405, name:Dukang Zhou [lat=23.108406, lon=107.084427], type: Zhou...
inserted a new POI with UUID: 65cdb974-be7d-414e-ae57-4c0e50a5ecbf
processing line 341 with id:406, name:Dingluosi [lat=23.536270, lon=107.838043], type: Tusi...
inserted a new POI with UUID: 84545ff9-7dfd-460d-a045-04380a411ee5
processing line 342 with id:407, name:Jie'an Zhou [lat=23.182619, lon=107.263573], type: Zhou...
inserted a new POI with UUID: 87d242c8-39a6-448c-abe7-39d3cb698ff0
processing line 343 with id:408, name:Jielun Zhou [lat=23.240044, lon=107.277435], type: Zhou...
inserted a new POI with UUID: ae636118-c7b9-45bf-8265-b08c5b26d991
processing line 344 with id:409, name:Guohua Zhou [lat=23.417728, lon=107.410622], type: Zhou...
inserted a new POI with UUID: 129e3067-023f-4e7a-8b32-ea4e9b6455ab
processing line 345 with id:410, name:Zhenyuan Zhou [lat=23.239769, lon=107.211914], type: Zhou...
inserted a new POI with UUID: 8e31a9b6-88fa-4b68-9850-393bda5a97d5
processing line 346 with id:411, name:Shanglin Xian [lat=23.509686, lon=107.337517], type: Xian...
inserted a new POI with UUID: 93b866ab-a4d8-4098-9060-d6c48d7bed97
processing line 347 with id:412, name:Gulingsi [lat=23.639641, lon=108.306877], type: Tusi...
inserted a new POI with UUID: 3b36fdd6-1d28-4936-bd72-b6238669bd67
processing line 348 with id:413, name:Xinglongsi [lat=23.589146, lon=108.142136], type: Tusi...
inserted a new POI with UUID: f3bb9e2a-738a-42ff-890c-c0f356f1b9e4
processing line 349 with id:414, name:andingsi [lat=23.934784, lon=108.093445], type: Tusi...
inserted a new POI with UUID: 57d26258-d2b5-43f9-af9a-44435cab7af8
processing line 350 with id:415, name:Wuyuan Xian [lat=23.166767, lon=108.276291], type: Xian...
inserted a new POI with UUID: 411722fa-e112-4950-8437-39e51055c022
processing line 351 with id:416, name:Baishansi [lat=23.714365, lon=108.174721], type: Tusi...
inserted a new POI with UUID: c66319e6-bd73-4672-8707-0f82a5b7ec05
processing line 352 with id:417, name:Laibin Xian [lat=23.700663, lon=109.286224], type: Xian...
inserted a new POI with UUID: 32dee5e8-41d1-4f13-aa89-6fec471d4ac1
processing line 353 with id:418, name:Xiang Zhou [lat=23.958055, lon=109.682457], type: Zhou...
inserted a new POI with UUID: 93adc0b2-4e44-4553-9321-60e0a97ef639
processing line 354 with id:419, name:Wuxuan Xian [lat=23.596741, lon=109.655029], type: Xian...
inserted a new POI with UUID: 9cb9f695-8f25-4e85-a8c4-5d2d74f0f2a6
processing line 355 with id:420, name:Gui Xian [lat=23.099092, lon=109.608444], type: Xian...
inserted a new POI with UUID: b2983ff1-1052-482b-bc05-dd29f6a39c55
processing line 356 with id:421, name:Pingnan Xian [lat=23.549980, lon=110.394737], type: Xian...
inserted a new POI with UUID: 99ef4498-9d40-4914-826f-a6ad7e965240
processing line 357 with id:422, name:Teng Xian [lat=23.373119, lon=110.904282], type: Xian...
inserted a new POI with UUID: 51fcc140-c8ce-45f4-a54b-f605881aa6e7
processing line 358 with id:423, name:Guiping Xian [lat=23.394571, lon=110.071663], type: Xian...
inserted a new POI with UUID: 3b940e12-2142-406c-8965-b1da6c333f9b
processing line 359 with id:424, name:Cangwu Xian [lat=23.486898, lon=111.308571], type: Xian...
inserted a new POI with UUID: 3f89e181-e836-413e-828d-e2e6e13c3893
processing line 360 with id:425, name:Huaiji Xian [lat=23.912186, lon=112.179237], type: Xian...
inserted a new POI with UUID: 806cf0d4-0fa4-4058-bbdf-fd85d9bb15f2
processing line 361 with id:426, name:Xiashixi Zhou [lat=22.125734, lon=106.894508], type: Zhou...
inserted a new POI with UUID: c4f06ae2-12bc-4e23-83f4-936386f376ed
processing line 362 with id:427, name:Xialei Zhou [lat=22.913649, lon=106.750908], type: Zhou...
inserted a new POI with UUID: 5a6d8f8d-a807-45f3-9bf8-397b32ef74bf
processing line 363 with id:428, name:Shangxiadong Zhou [lat=22.389748, lon=106.695473], type: Zhou...
inserted a new POI with UUID: 8d376773-6d9b-41dd-80c1-a3eef29a891a
processing line 364 with id:429, name:Pingxiang Zhou [lat=22.111984, lon=106.754341], type: Zhou...
inserted a new POI with UUID: 8bb4faa9-b3fe-4313-9d77-15b7cc9fe052
processing line 365 with id:430, name:Longzhou Ting [lat=22.351665, lon=106.850357], type: Ting...
inserted a new POI with UUID: 8bd7a0e2-6aef-4980-bd76-6e1eaf38299a
processing line 366 with id:431, name:Yongkang Zhou [lat=22.802837, lon=107.779747], type: Zhou...
inserted a new POI with UUID: db5fcce2-d8f7-4c37-bbef-c7c34d98fd9e
processing line 367 with id:432, name:Shangsi Zhou [lat=22.152637, lon=107.978790], type: Zhou...
inserted a new POI with UUID: 2d4f8ca0-5425-4ae6-8596-b3cb621e3e32
processing line 368 with id:433, name:Wancheng Zhou [lat=22.903643, lon=107.310867], type: Zhou...
inserted a new POI with UUID: cb010450-50c6-48e4-af49-2e31342ef535
processing line 369 with id:434, name:Zuo Zhou [lat=22.692247, lon=107.490784], type: Zhou...
inserted a new POI with UUID: bfa612f9-1dfd-4042-9501-a98f97ef7ba7
processing line 370 with id:435, name:Quanming Zhou [lat=22.924000, lon=107.173370], type: Zhou...
inserted a new POI with UUID: 943c6ca7-bdba-4efa-a689-070ca7c8fd1d
processing line 371 with id:436, name:Jiang Zhou [lat=22.316572, lon=107.382835], type: Zhou...
inserted a new POI with UUID: 52f66a3a-a84a-412a-be03-63f961029766
processing line 372 with id:437, name:Ningming Zhou [lat=22.138447, lon=107.062843], type: Zhou...
inserted a new POI with UUID: 20f17b33-888d-4346-9055-f91b93051a24
processing line 373 with id:438, name:anping Zhou [lat=22.903643, lon=107.310867], type: Zhou...
inserted a new POI with UUID: 7918a561-f2f0-4c95-9bf8-353bf22831a3
processing line 374 with id:439, name:Mingying Zhou [lat=22.930977, lon=107.233749], type: Zhou...
inserted a new POI with UUID: 3e5925ca-593e-455c-8aa2-48af73d4b35f
processing line 375 with id:440, name:Taiping Zhou [lat=22.649410, lon=107.093781], type: Zhou...
inserted a new POI with UUID: f116a9ca-eea9-43ed-8ce9-d81e93f4ea8e
processing line 376 with id:441, name:Chongshan Xian [lat=22.446248, lon=107.344806], type: Xian...
inserted a new POI with UUID: 66d1a269-afad-4f2e-96a2-1fb7dd6dbf12
processing line 377 with id:442, name:Zhong Zhou [lat=22.305437, lon=107.779739], type: Zhou...
inserted a new POI with UUID: 18dae8ac-f94c-4aa5-bf68-b287078ed49f
processing line 378 with id:443, name:Si Zhou [lat=22.095966, lon=107.415329], type: Zhou...
inserted a new POI with UUID: 9e8d3382-fbca-424f-8824-9e4e5f0a7816
processing line 379 with id:444, name:Mingjiang Ting [lat=22.120289, lon=107.132957], type: Ting...
inserted a new POI with UUID: 5432c0be-ffea-4ea6-aefa-873b03f8dd04
processing line 380 with id:445, name:Xinning Zhou [lat=22.643337, lon=107.905380], type: Zhou...
inserted a new POI with UUID: a46e1a32-405d-4a28-bcce-85bf0b015ec5
processing line 381 with id:446, name:Longying Zhou [lat=22.980976, lon=107.018425], type: Zhou...
inserted a new POI with UUID: 6efcbc19-b6d2-4d80-8954-451c6149b5a7
processing line 382 with id:447, name:Luobai Xian [lat=22.327505, lon=107.517815], type: Xian...
inserted a new POI with UUID: 47b929f3-03ae-47d6-a5e3-8881845cfcb0
processing line 383 with id:448, name:Luoyang Xian [lat=22.760883, lon=107.853584], type: Xian...
inserted a new POI with UUID: 4cfe129a-a7af-42ca-9651-2e501f3c1004
processing line 384 with id:449, name:Yangli Zhou [lat=22.841093, lon=107.195427], type: Zhou...
inserted a new POI with UUID: 5bde4968-b02f-468d-af67-25885de43b00
processing line 385 with id:450, name:Yongchun Xian [lat=22.804642, lon=108.914207], type: Xian...
inserted a new POI with UUID: ba294cff-46a4-445b-9ab2-b57a921d248a
processing line 386 with id:451, name:Xuanhua Xian [lat=22.806145, lon=108.312073], type: Xian...
inserted a new POI with UUID: c4e8a959-faf1-4c9c-a83d-b7b4871f8338
processing line 387 with id:452, name:Bobai Xian [lat=22.275869, lon=109.971413], type: Xian...
inserted a new POI with UUID: 0cec0cb5-c77f-41fd-a25f-69d86cef01e9
processing line 388 with id:453, name:Xingye Xian [lat=22.748634, lon=109.869537], type: Xian...
inserted a new POI with UUID: 031cc19e-9296-4b2f-b7bf-722e296a6e64
processing line 389 with id:454, name:Beiliu Xian [lat=22.714184, lon=110.347519], type: Xian...
inserted a new POI with UUID: 4f25b99c-76c8-4efc-9219-0cc49011e28b
processing line 390 with id:455, name:Luchuan Xian [lat=22.325253, lon=110.266808], type: Xian...
inserted a new POI with UUID: cee6494a-9e21-44a8-9408-f24b4d54f4c5
processing line 391 with id:456, name:Rong Xian [lat=22.863588, lon=110.551033], type: Xian...
inserted a new POI with UUID: c24dd8c8-466b-4736-9817-5e197c70147a
processing line 392 with id:457, name:Cenxi Xian [lat=22.929060, lon=111.000847], type: Xian...
inserted a new POI with UUID: 3c005ea2-c05f-4730-9b9d-8ec7e6b2b87f
processing line 393 with id:458, name:Siling Zhou [lat=21.875017, lon=107.106110], type: Zhou...
inserted a new POI with UUID: 9e45574a-901f-4316-9009-fa10f8f5690b
processing line 394 with id:459, name:Heng Zhou [lat=22.692957, lon=109.267044], type: Zhou...
inserted a new POI with UUID: bb1f0a68-f4c7-452c-a7db-6cf7cb4370ae
processing line 395 with id:460, name:Bin Zhou [lat=23.243816, lon=108.828369], type: Zhou...
inserted a new POI with UUID: ff26f14e-b702-4616-b571-ba5ebfcd8d82
processing line 396 with id:461, name:Qianjiang Xian [lat=23.623554, lon=108.968712], type: Xian...
inserted a new POI with UUID: 4dc631bd-c075-4aa8-9616-d26a4c02db5c
processing line 397 with id:462, name:Tongzi Xian [lat=28.138098, lon=106.817406], type: Xian...
inserted a new POI with UUID: 9249d952-dcf2-4e16-be49-6f92a962985b
processing line 398 with id:463, name:Zheng'an Zhou [lat=28.556452, lon=107.447365], type: Ting...
inserted a new POI with UUID: 2703a27d-05fa-4a8e-b553-dc2315863fc1
processing line 399 with id:464, name:Yinjiang Xian [lat=28.007593, lon=108.411293], type: Xian...
inserted a new POI with UUID: 724a9aeb-7e52-4a25-b129-8c5c02586814
processing line 400 with id:465, name:Wuchuan Xian [lat=28.459709, lon=108.053574], type: Xian...
inserted a new POI with UUID: 0e740562-b0c9-4ab4-933b-91b99b57ccce
processing line 401 with id:466, name:Bijie Xian [lat=27.308081, lon=105.284004], type: Xian...
inserted a new POI with UUID: 30558bd9-3675-4c08-8c89-20086876c41d
processing line 402 with id:467, name:Kai Zhou [lat=27.058855, lon=106.967384], type: Zhou...
inserted a new POI with UUID: 01f92d50-c008-46b5-85dc-dd6901c351ca
processing line 403 with id:468, name:Renhuai Xian [lat=27.813129, lon=106.422417], type: Xian...
inserted a new POI with UUID: 6df43330-eb2c-4b72-9f64-16cac9d56dad
processing line 404 with id:469, name:Zunyi Xian [lat=27.695621, lon=106.931602], type: Xian...
inserted a new POI with UUID: b1c2ec22-1392-49ae-9765-faec76a0edee
processing line 405 with id:470, name:Qianxi Zhou [lat=27.034166, lon=106.036697], type: Zhou...
inserted a new POI with UUID: 47a86ffc-cdd8-45eb-a068-69d8c5348bf6
processing line 406 with id:471, name:Yuqing Xian [lat=27.222479, lon=107.893105], type: Xian...
inserted a new POI with UUID: c645bc59-1f51-484d-988a-92c406771620
processing line 407 with id:472, name:Meitan Xian [lat=27.771950, lon=107.478264], type: Xian...
inserted a new POI with UUID: 6044c475-c7b8-42e2-a597-9eb62c24c33e
processing line 408 with id:473, name:Suiyang Xian [lat=27.960619, lon=107.183258], type: Xian...
inserted a new POI with UUID: 3ee3065e-e503-4390-b7b5-773cfd257286
processing line 409 with id:474, name:Weng'an Xian [lat=27.073069, lon=107.482826], type: Xian...
inserted a new POI with UUID: 31cf024e-9f2d-4c07-8e16-fd935c744977
processing line 410 with id:475, name:Longquan Xian [lat=27.971205, lon=107.724457], type: Xian...
inserted a new POI with UUID: 2241b73d-3e04-443e-8db0-528e42ff26f3
processing line 411 with id:476, name:Anhua Xian [lat=27.940149, lon=108.241829], type: Xian...
inserted a new POI with UUID: 9561fbd5-ffec-45d2-99bf-d223def4e0a6
processing line 412 with id:477, name:Shibing Xian [lat=27.037273, lon=108.118927], type: Xian...
inserted a new POI with UUID: aff60e46-6bf7-4d3a-bd1d-14d2bfa18da1
processing line 413 with id:478, name:Yuping Xian [lat=27.235931, lon=108.911545], type: Xian...
inserted a new POI with UUID: e09ebfe1-83ed-492e-93e8-5740b40af31e
processing line 414 with id:479, name:Zhenyuan Xian [lat=27.054264, lon=108.418449], type: Xian...
inserted a new POI with UUID: ae7988f8-9d76-4620-9b4a-b0f4c7f5cfba
processing line 415 with id:480, name:Qingxi Xian [lat=27.126684, lon=108.730377], type: Xian...
inserted a new POI with UUID: ae3800c8-b0d7-412b-a88b-f9ba22b81e5b
processing line 416 with id:481, name:Tongren Xian [lat=27.722477, lon=109.192688], type: Xian...
inserted a new POI with UUID: 8ed6fe6a-2963-4f88-8e79-5ead9ad526d6
processing line 417 with id:482, name:Weining Zhou [lat=26.860271, lon=104.289833], type: Zhou...
inserted a new POI with UUID: b78a9eb3-bde0-483e-b035-fcbbac3dbf34
processing line 418 with id:483, name:Shuicheng Ting [lat=26.577568, lon=104.873390], type: Ting...
inserted a new POI with UUID: a2000c27-7026-4c83-89bd-ec179893c739
processing line 419 with id:484, name:Pingyuan Zhou [lat=26.660494, lon=105.763092], type: Zhou...
inserted a new POI with UUID: 3a896f84-4ca1-4822-b36a-3a4ef2d29f37
processing line 420 with id:485, name:Langdai Ting [lat=26.096876, lon=105.345894], type: Ting...
inserted a new POI with UUID: a25d80b3-a7ec-41ac-927d-9a47137c7d81
processing line 421 with id:486, name:Puding Xian [lat=26.243244, lon=105.927864], type: Xian...
inserted a new POI with UUID: 608e7782-577e-4a33-8658-ae5a31555aee
processing line 422 with id:487, name:Zhenning Zhou [lat=26.054596, lon=105.763557], type: Zhou...
inserted a new POI with UUID: 16ecae83-01f1-473b-af03-64ea1013b518
processing line 423 with id:488, name:Changzhai Ting [lat=26.030334, lon=106.452148], type: Ting...
inserted a new POI with UUID: 2eeba264-565a-4c8c-9035-6717f737045b
processing line 424 with id:489, name:Xiuwen Xian [lat=26.842997, lon=106.591927], type: Xian...
inserted a new POI with UUID: 4c81f806-ae3c-4c09-90b7-7e051c612ef2
processing line 425 with id:490, name:Qingzhen Xian [lat=26.556049, lon=106.467621], type: Xian...
inserted a new POI with UUID: c2a017cc-e48d-4d52-a018-03770d1b5291
processing line 426 with id:491, name:Anping Xian [lat=26.417788, lon=106.260857], type: Xian...
inserted a new POI with UUID: ff980a1f-f1de-48ac-889a-9f1fd4059c33
processing line 427 with id:492, name:Dingfan Zhou [lat=26.138756, lon=106.656242], type: Zhou...
inserted a new POI with UUID: fb8d2b67-77c6-4f92-b89b-c13ea42d5e35
processing line 428 with id:493, name:Guangshun Zhou [lat=26.194824, lon=106.371857], type: Zhou...
inserted a new POI with UUID: 0f477eb5-6227-4758-9c4b-46394d4d5bb5
processing line 429 with id:494, name:Guizhu Xian [lat=26.580778, lon=106.709114], type: Xian...
inserted a new POI with UUID: 347e6330-b803-4ee3-883d-3799bf5db86b
processing line 430 with id:495, name:Longli Xian [lat=26.458336, lon=106.981064], type: Xian...
inserted a new POI with UUID: 2b64eee3-9f35-4b66-b521-5f9fe2201f98
processing line 431 with id:496, name:Bazhai Ting [lat=26.200058, lon=107.792259], type: Ting...
inserted a new POI with UUID: 833d4afc-4107-4a3e-bc49-a4d3a228cb6f
processing line 432 with id:497, name:Duyun Xian [lat=26.265654, lon=107.518761], type: Xian...
inserted a new POI with UUID: 8f3e3ac0-a3ad-45e4-aff7-4e682bc23b62
processing line 433 with id:498, name:Qingping Xian [lat=26.658318, lon=107.788979], type: Xian...
inserted a new POI with UUID: 87ee6c5f-0c0f-49cd-b263-4e16867a42c7
processing line 434 with id:499, name:Huangping Zhou [lat=26.895836, lon=107.902138], type: Zhou...
inserted a new POI with UUID: bd222873-af16-465c-a45a-23eeceda3821
processing line 435 with id:500, name:Guiding Xian [lat=26.585646, lon=107.239624], type: Xian...
inserted a new POI with UUID: 9c788828-a4a2-4380-94b9-9687273c4550
processing line 436 with id:501, name:Maha Zhou [lat=26.498539, lon=107.588036], type: Zhou...
inserted a new POI with UUID: 03be4b54-7cf2-4002-b2e7-99f0f238484b
processing line 437 with id:502, name:Danjiang Ting [lat=26.429909, lon=108.050079], type: Ting...
inserted a new POI with UUID: 8e50a04b-a7c3-4dcc-88fd-ce1ca620787c
processing line 438 with id:503, name:Qingjiang Ting [lat=26.650932, lon=108.584587], type: Ting...
inserted a new POI with UUID: 493575b5-1bdf-46f7-b4cc-d393409aa583
processing line 439 with id:504, name:Taigong Ting [lat=26.676718, lon=108.311111], type: Ting...
inserted a new POI with UUID: ea04c62f-af37-43da-89c8-e18d51c16af8
processing line 440 with id:505, name:Yongcong Xian [lat=26.038626, lon=109.133255], type: Xian...
inserted a new POI with UUID: 4fe6f1cc-57bc-4434-b4c0-1abccf0f7843
processing line 441 with id:506, name:Kaitai Xian [lat=26.231159, lon=109.132927], type: Xian...
inserted a new POI with UUID: 46c49368-df7f-4c3f-8a68-67e959b0def3
processing line 442 with id:507, name:Tianzhu Xian [lat=26.908808, lon=109.200432], type: Xian...
inserted a new POI with UUID: a78c1bde-7d61-4b84-9855-e7794765db3d
processing line 443 with id:508, name:Jinping Xian [lat=26.586206, lon=109.316005], type: Xian...
inserted a new POI with UUID: aa5ef625-73f0-476c-9191-cdc887d26ca5
processing line 444 with id:509, name:Xingyi Xian [lat=25.087345, lon=104.896172], type: Xian...
inserted a new POI with UUID: f1438658-d70a-433c-90d8-b9187799cedd
processing line 445 with id:510, name:Pu'an Xian [lat=25.788410, lon=104.952080], type: Xian...
inserted a new POI with UUID: 3dbb99ba-be0b-42cc-92bf-06b5c714e6a3
processing line 446 with id:511, name:Yongning Zhou [lat=25.910208, lon=105.485825], type: Zhou...
inserted a new POI with UUID: f2d9b122-5f83-41d0-8f32-1132d9348dcb
processing line 447 with id:512, name:Annan Xian [lat=25.833469, lon=105.215881], type: Xian...
inserted a new POI with UUID: 3184ef6e-4c53-4ec7-be4a-2f2b860af418
processing line 448 with id:513, name:Zhenfeng Zhou [lat=25.387112, lon=105.654778], type: Zhou...
inserted a new POI with UUID: 2c734ce3-4c7e-4d7a-a85a-10aa8f06c072
processing line 449 with id:514, name:Guihua Ting [lat=25.753273, lon=106.083138], type: Ting...
inserted a new POI with UUID: 4834157c-4aea-4fd0-9f6f-31d3ffcc0911
processing line 450 with id:515, name:Libo Xian [lat=25.414360, lon=107.878403], type: Xian...
inserted a new POI with UUID: 42597dec-aed5-4b46-9789-f8eef08c8bbb
processing line 451 with id:516, name:Dushan Zhou [lat=25.829073, lon=107.542747], type: Zhou...
inserted a new POI with UUID: 90f46e0e-7a05-4b32-89b5-b402bffcd6d7
processing line 452 with id:517, name:Xiajiang Ting [lat=25.761253, lon=108.692001], type: Ting...
inserted a new POI with UUID: 80b55d4c-3a52-4855-b766-8b98a61aec33
processing line 453 with id:518, name:Guzhou Ting [lat=25.925589, lon=108.516174], type: Ting...
inserted a new POI with UUID: c012e849-3ff4-4b88-9b9d-e4d3ad7e2d0f
processing line 454 with id:519, name:Dujiang Ting [lat=25.938431, lon=108.088760], type: Ting...
inserted a new POI with UUID: 7ae1b9ec-08df-4fec-a245-940f64995201
processing line 455 with id:520, name:Hulan Xian [lat=45.980553, lon=126.598297], type: Xian...
inserted a new POI with UUID: cf5ad512-952a-4b86-bc45-4337fc0b05f6
processing line 456 with id:521, name:Gushi Xian [lat=32.183540, lon=115.671104], type: Xian...
inserted a new POI with UUID: c9f0dba3-d636-4938-8673-ed39f22cf22e
processing line 457 with id:522, name:Shangcheng Xian [lat=31.803518, lon=115.407059], type: Xian...
inserted a new POI with UUID: 413914fd-c8b4-4306-8baf-4d9588764b34
processing line 458 with id:523, name:She Xian [lat=36.564140, lon=113.670395], type: Xian...
inserted a new POI with UUID: 9bb02ee5-1462-4f1e-8c64-6cbdd762639c
processing line 459 with id:524, name:Lin Xian [lat=36.068802, lon=113.812805], type: Xian...
inserted a new POI with UUID: 47e4aca0-6276-466f-83f7-e0fec31188f4
processing line 460 with id:525, name:Linzhang Xian [lat=36.341301, lon=114.607079], type: Xian...
inserted a new POI with UUID: 9753f85f-4f0d-4581-977c-f9b38129571d
processing line 461 with id:526, name:Anyang Xian [lat=36.098343, lon=114.345497], type: Xian...
inserted a new POI with UUID: 246f463b-52ab-48f6-bf25-c3f7e8f40406
processing line 462 with id:527, name:Wu'an Xian [lat=36.697582, lon=114.191864], type: Xian...
inserted a new POI with UUID: 13b51ec5-cd96-4216-a604-6113236e48fc
processing line 463 with id:528, name:Henei Xian [lat=35.089302, lon=112.936989], type: Xian...
inserted a new POI with UUID: 199252f9-f5d8-448c-bf47-108dd595dd35
processing line 464 with id:529, name:Jiyuan Xian [lat=35.092438, lon=112.582672], type: Xian...
inserted a new POI with UUID: b38374c5-dc7f-4c35-a0fe-893d678ad98b
processing line 465 with id:530, name:Xiuwu Xian [lat=35.231197, lon=113.434837], type: Xian...
inserted a new POI with UUID: b8f23c2a-b851-42da-b5ce-1a990faa3f74
processing line 466 with id:531, name:Yangwu Xian [lat=35.051949, lon=113.962967], type: Xian...
inserted a new POI with UUID: 3b6b2e9f-0d8b-4cd5-bc59-4148ca458249
processing line 467 with id:532, name:Huojia Xian [lat=35.268127, lon=113.660217], type: Xian...
inserted a new POI with UUID: b4620ea3-2469-4975-8aac-8dac4c24de3a
processing line 468 with id:533, name:Hui Xian [lat=35.458675, lon=113.794144], type: Xian...
inserted a new POI with UUID: 98c1ccc7-972d-4266-9827-7901eec08380
processing line 469 with id:534, name:Wuzhi Xian [lat=35.056086, lon=113.365358], type: Xian...
inserted a new POI with UUID: 43f00a67-f173-44bc-9c52-fb500b8f800b
processing line 470 with id:535, name:Xinxiang [lat=35.309940, lon=113.868248], type: Xian...
inserted a new POI with UUID: d728760a-87b3-47d5-a4e1-352f9b725b8e
processing line 471 with id:536, name:Neihuang Xian [lat=35.953903, lon=114.897377], type: Xian...
inserted a new POI with UUID: dc1d3d75-b2f7-480c-808b-cf223ff21bf6
processing line 472 with id:537, name:Yanjin Xian [lat=35.142761, lon=114.194687], type: Xian...
inserted a new POI with UUID: 4aab617f-2f6f-4b66-a4f2-e14b0dcc473d
processing line 473 with id:538, name:Tangyin Xian [lat=35.925518, lon=114.352692], type: Xian...
inserted a new POI with UUID: defa3515-abcb-4414-8bec-1a684dc5feb2
processing line 474 with id:539, name:Ji Xian [lat=35.410385, lon=114.070267], type: Xian...
inserted a new POI with UUID: f2ea78bf-e953-436f-95b3-e1e66bf5d131
processing line 475 with id:540, name:Qi Xian [lat=35.606449, lon=114.194366], type: Xian...
inserted a new POI with UUID: 3362aa6b-c1d8-4f62-8e40-7c715ee82783
processing line 476 with id:541, name:Hua Xian [lat=35.564453, lon=114.543465], type: Xian...
inserted a new POI with UUID: b91d1d74-d97d-4d85-8b9a-33d24d3fe074
processing line 477 with id:542, name:Fengqiu Xian [lat=35.039677, lon=114.408829], type: Xian...
inserted a new POI with UUID: a539e0a2-4192-4d39-965e-8bfd16a7653f
processing line 478 with id:543, name:Wenxiang Xian [lat=34.563279, lon=110.661237], type: Xian...
inserted a new POI with UUID: 5d585ac6-0e3a-4a07-9991-58a3fe65683f
processing line 479 with id:544, name:Lingbao Xian [lat=34.684616, lon=110.941490], type: Xian...
inserted a new POI with UUID: 4df60016-cd7b-4068-9c06-5b4af48805bd
processing line 480 with id:545, name:Yongning Xian [lat=34.385807, lon=111.653404], type: Xian...
inserted a new POI with UUID: b5b528e8-965d-425b-b50e-df48f2de6f7e
processing line 481 with id:546, name:Lushi Xian [lat=34.052612, lon=111.040916], type: Xian...
inserted a new POI with UUID: fabbd14e-1f32-4d23-aac1-87c73355f9ff
processing line 482 with id:547, name:Mianchi Xian [lat=34.765198, lon=111.766312], type: Xian...
inserted a new POI with UUID: 941bc74c-05e7-41e1-9d39-f0fc629379ef
processing line 483 with id:548, name:Yiyang Xian [lat=34.155750, lon=112.457840], type: Xian...
inserted a new POI with UUID: ee3cc082-e3e5-491c-8f5a-bd08ee935d58
processing line 484 with id:549, name:Yanshi Xian [lat=34.703129, lon=112.812446], type: Xian...
inserted a new POI with UUID: bbd6fc5d-1698-42b8-89ed-208c380487e4
processing line 485 with id:550, name:Luoyang Xian [lat=34.665276, lon=112.382630], type: Xian...
inserted a new POI with UUID: 707065a6-51fe-4403-9c49-06b6f9f1e148
processing line 486 with id:551, name:Yiyang Xian [lat=34.512718, lon=112.165222], type: Xian...
inserted a new POI with UUID: 705936bf-bda7-48e1-9802-5691d75f1481
processing line 487 with id:552, name:Song Xian [lat=34.147213, lon=112.087547], type: Xian...
inserted a new POI with UUID: c2147928-ebc1-4042-aa0d-07fc55b630d6
processing line 488 with id:553, name:Xin'an Xian [lat=34.733059, lon=112.144302], type: Xian...
inserted a new POI with UUID: 17d44c38-df1d-428c-8b80-951a441fa582
processing line 489 with id:554, name:Meng Xian [lat=34.903179, lon=112.782799], type: Xian...
inserted a new POI with UUID: 7652dc89-ab84-4398-b0f0-0251fcedaa94
processing line 490 with id:555, name:Mengjin Xian [lat=34.813835, lon=112.636742], type: Xian...
inserted a new POI with UUID: 3aafa684-608c-4813-8536-643c77ac05a8
processing line 491 with id:556, name:Changge Xian [lat=34.229904, lon=113.850494], type: Xian...
inserted a new POI with UUID: 94819a47-48cd-4848-b255-9eba60ab336a
processing line 492 with id:557, name:Yu Zhou [lat=34.162491, lon=113.467056], type: Zhou...
inserted a new POI with UUID: 312af8b3-b977-4854-90e6-22baf476169c
processing line 493 with id:558, name:Yuanwu Xian [lat=34.994549, lon=113.789421], type: Xian...
inserted a new POI with UUID: 34b9a969-c77b-4cab-8b95-82920e4e27f0
processing line 494 with id:559, name:Zheng Zhou [lat=34.758076, lon=113.641312], type: Zhou...
inserted a new POI with UUID: a4ac83ec-207f-4c59-9864-128133ea05e6
processing line 495 with id:560, name:Sishui Xian [lat=34.836136, lon=113.221830], type: Xian...
inserted a new POI with UUID: dd30b738-13d4-43c2-b880-e774fe73cd31
processing line 496 with id:561, name:Weichuan Xian [lat=34.288132, lon=113.982956], type: Xian...
inserted a new POI with UUID: 21d07568-dfd5-4a70-b8a8-c9790e460ff1
processing line 497 with id:562, name:Wen Xian [lat=34.938118, lon=113.075463], type: Xian...
inserted a new POI with UUID: 4b269f86-f362-46f1-af04-0a826a86c1e3
processing line 498 with id:563, name:Mi Xian [lat=34.514629, lon=113.354561], type: Xian...
inserted a new POI with UUID: c422ad55-03ee-4c6f-84c7-732215c92cff
processing line 499 with id:564, name:Gong Xian [lat=34.785107, lon=113.051003], type: Xian...
inserted a new POI with UUID: 251cb90c-fc26-466d-9f7a-a63415ddd5e0
processing line 500 with id:565, name:Yingyang Xian [lat=34.783108, lon=113.347397], type: Xian...
inserted a new POI with UUID: f85fc211-5323-42f5-9e44-d1cc2e575ea2
processing line 501 with id:566, name:Yingze Xian [lat=34.874363, lon=113.534416], type: Xian...
inserted a new POI with UUID: e39723ac-b022-495b-81c1-ed3300a3243a
processing line 502 with id:567, name:Xinzheng Xian [lat=34.397324, lon=113.719086], type: Xian...
inserted a new POI with UUID: 8a76f755-ac72-4998-80f1-8fa256e9064d
processing line 503 with id:568, name:Dengfeng Xian [lat=34.455818, lon=113.024620], type: Xian...
inserted a new POI with UUID: 6c2c6c60-4a49-4edf-8a0e-2a48d8315841
processing line 504 with id:569, name:Kaocheng Xian [lat=34.962357, lon=114.952621], type: Xian...
inserted a new POI with UUID: dfd96258-9e5d-43a7-9384-7ff1dd9ee3f1
processing line 505 with id:570, name:Zhongmou Xian [lat=34.732094, lon=114.026253], type: Xian...
inserted a new POI with UUID: 66869b29-a23d-4383-8c39-a979ddf98d06
processing line 506 with id:571, name:Lanyang Xian [lat=34.826515, lon=114.810120], type: Xian...
inserted a new POI with UUID: 8deabdd4-df61-4bec-a585-7b9173aa8a26
processing line 507 with id:572, name:Yifeng Ting [lat=34.819366, lon=114.940864], type: Ting...
inserted a new POI with UUID: 557ed9e1-f896-4e7e-ab06-91a984e880bd
processing line 508 with id:573, name:Chenliu Xian [lat=34.673195, lon=114.524528], type: Xian...
inserted a new POI with UUID: 2aa94e21-c145-4cbe-8073-f4bb2013382f
processing line 509 with id:574, name:Yanling Xian [lat=34.107433, lon=114.195343], type: Xian...
inserted a new POI with UUID: ae8f9dc3-0824-41bc-b7fd-8ce717834684
processing line 510 with id:575, name:Tongxu Xian [lat=34.475006, lon=114.459076], type: Xian...
inserted a new POI with UUID: 9c3314fd-bcf6-4383-ba83-9d2272ec8745
processing line 511 with id:576, name:Weishi Xian [lat=34.413452, lon=114.180771], type: Xian...
inserted a new POI with UUID: ed92b00a-222c-49b3-9de6-faa23f615578
processing line 512 with id:577, name:Fugou Xian [lat=34.060081, lon=114.381271], type: Xian...
inserted a new POI with UUID: c6318d74-9d90-4242-97f2-b029a484e2d0
processing line 513 with id:578, name:Taikang Xian [lat=34.063873, lon=114.856377], type: Xian...
inserted a new POI with UUID: 8deea971-62b5-4b85-9848-840ada3c9787
processing line 514 with id:579, name:Xiangfu Xian [lat=34.785477, lon=114.343330], type: Xian...
inserted a new POI with UUID: 4152f6ef-a20c-4a53-b727-7a3af4e2543d
processing line 515 with id:580, name:Qi Xian [lat=34.553513, lon=114.774483], type: Xian...
inserted a new POI with UUID: 74928980-1e5f-486a-ab51-c45493fbf65c
processing line 516 with id:581, name:Shangqiu Xian [lat=34.385052, lon=115.607452], type: Xian...
inserted a new POI with UUID: d5ab8477-d9b7-4262-affa-388d63c847b0
processing line 517 with id:582, name:Ningling Xian [lat=34.445976, lon=115.315368], type: Xian...
inserted a new POI with UUID: 47831ffb-eea1-4946-8f45-745ae31734bf
processing line 518 with id:583, name:Zhecheng Xian [lat=34.076611, lon=115.296463], type: Xian...
inserted a new POI with UUID: e9df0bd4-b6f9-440e-9c7b-d01d3a3f14f8
processing line 519 with id:584, name:Yucheng Xian [lat=34.519341, lon=115.904617], type: Xian...
inserted a new POI with UUID: 50bec37f-6f5d-449e-8733-6c8213c7790d
processing line 520 with id:585, name:Xiayi Xian [lat=34.237991, lon=116.121414], type: Xian...
inserted a new POI with UUID: 51a1b2a4-3b02-4f75-8bf1-38ea5e75b968
processing line 521 with id:586, name:Neixiang Xian [lat=33.050232, lon=111.838593], type: Xian...
inserted a new POI with UUID: f237befc-e81e-41db-8e0d-57024c4df808
processing line 522 with id:587, name:Nanzhao Xian [lat=33.445316, lon=112.712746], type: Xian...
inserted a new POI with UUID: 838e77b1-bc74-4bb5-bb7c-694bc50fa4a1
processing line 523 with id:588, name:Nanyang Xian [lat=33.001678, lon=112.535469], type: Xian...
inserted a new POI with UUID: fbe605c2-d23e-4148-b927-840734e3faac
processing line 524 with id:589, name:Yu Zhou [lat=33.260078, lon=112.992508], type: Zhou...
inserted a new POI with UUID: 1d3564e4-03b6-4bd5-8c2d-b8982a947219
processing line 525 with id:590, name:Zhenping Xian [lat=33.038555, lon=112.234818], type: Xian...
inserted a new POI with UUID: 8a058eb3-a092-43dc-8fb4-1b099f408e1f
processing line 526 with id:591, name:Lushan Xian [lat=33.737118, lon=112.901939], type: Xian...
inserted a new POI with UUID: f53f5fd9-fd1e-4b1e-87c1-0ab6b252613f
processing line 527 with id:592, name:Linying Xian [lat=33.808605, lon=113.960640], type: Xian...
inserted a new POI with UUID: 9864c696-7fb6-4737-9cd7-78535bb4dc7b
processing line 528 with id:593, name:Wuyang Xian [lat=33.432571, lon=113.586899], type: Xian...
inserted a new POI with UUID: 64c56ffb-09ac-464d-9383-848a25747910
processing line 529 with id:594, name:Xiangcheng Xian [lat=33.853691, lon=113.472366], type: Xian...
inserted a new POI with UUID: 50437cc9-3e1a-437e-b3d1-2e842a1359ed
processing line 530 with id:595, name:Jia Xian [lat=33.972053, lon=113.203407], type: Xian...
inserted a new POI with UUID: cc9307bd-1f8b-457d-93cc-f7d16b82e87a
processing line 531 with id:596, name:Yancheng Xian [lat=33.596268, lon=113.990395], type: Xian...
inserted a new POI with UUID: 898b4158-eee8-453f-9187-1e91d0b5b461
processing line 532 with id:597, name:Suiping Xian [lat=33.147839, lon=113.989113], type: Xian...
inserted a new POI with UUID: c8dfc490-bd64-4938-93d1-b96c4c693dec
processing line 533 with id:598, name:Ye Xian [lat=33.623302, lon=113.345528], type: Xian...
inserted a new POI with UUID: 52b1b299-def9-4dca-b998-03686f2a040b
processing line 534 with id:599, name:Shangshui Xian [lat=33.537884, lon=114.595726], type: Xian...
inserted a new POI with UUID: 1301cf7d-cdfe-4d48-8912-89c002c25b27
processing line 535 with id:600, name:Ruyang Xian [lat=33.007538, lon=114.346001], type: Xian...
inserted a new POI with UUID: 7510bc65-cec0-479c-9be3-b1c619d01498
processing line 536 with id:601, name:Huaining Xian [lat=33.733982, lon=114.882454], type: Xian...
inserted a new POI with UUID: 11e41287-b6c8-491d-9e84-f2719cd9e8dc
processing line 537 with id:602, name:Xiping Xian [lat=33.389057, lon=114.015533], type: Xian...
inserted a new POI with UUID: 56f37118-fe8d-468c-9aaf-1f1ef633ffce
processing line 538 with id:603, name:Xihua Xian [lat=33.793056, lon=114.524445], type: Xian...
inserted a new POI with UUID: f8bf8ee2-2ccf-4d5a-9c52-62078e2b946e
processing line 539 with id:604, name:Xiangcheng Xian [lat=33.209309, lon=114.832886], type: Xian...
inserted a new POI with UUID: b1ffa283-736d-46a1-a5eb-cd8399d59acf
processing line 540 with id:605, name:Shenqiu Xian [lat=33.179000, lon=115.142000], type: Xian...
inserted a new POI with UUID: 62680873-017e-4b27-9bbf-4ec333fe2c27
processing line 541 with id:606, name:Luyi Xian [lat=33.860767, lon=115.481361], type: Xian...
inserted a new POI with UUID: 21020e27-98a0-4246-b64f-1472738cd975
processing line 542 with id:607, name:Yongcheng Xian [lat=33.939457, lon=116.363998], type: Xian...
inserted a new POI with UUID: b5ec76cd-f4e4-41bb-8e9b-b4a9abf4d201
processing line 543 with id:608, name:Xichuan Xian [lat=33.014255, lon=111.381600], type: Xian...
inserted a new POI with UUID: 8c28fb54-3ea3-45e1-a50d-f7cef04cb811
processing line 544 with id:609, name:Deng Zhou [lat=32.684826, lon=112.080963], type: Zhou...
inserted a new POI with UUID: a592703f-f922-4bdb-ba02-f6dbca75a060
processing line 545 with id:610, name:Tang Xian [lat=32.697708, lon=112.832519], type: Xian...
inserted a new POI with UUID: be9eefd7-f355-4862-a8c0-96e6b5ae0c00
processing line 546 with id:611, name:Xinye Xian [lat=32.524872, lon=112.358429], type: Xian...
inserted a new POI with UUID: e62a7c31-c10e-47e3-8dee-ff4a9a5b085f
processing line 547 with id:612, name:Miyang Xian [lat=32.723171, lon=113.319191], type: Xian...
inserted a new POI with UUID: 9d98e023-c571-45cc-9e17-6af1a7ebbe62
processing line 548 with id:613, name:Tongbai Xian [lat=32.370747, lon=113.393021], type: Xian...
inserted a new POI with UUID: d1ebf253-9e7d-48d4-8008-c958099da71f
processing line 549 with id:614, name:Zhengyang Xian [lat=32.609119, lon=114.381210], type: Xian...
inserted a new POI with UUID: 71ce9723-1df7-4484-bd35-388d41b7bae4
processing line 550 with id:615, name:Xinyang Zhou [lat=32.131119, lon=114.069244], type: Zhou...
inserted a new POI with UUID: 287678a9-d447-4e41-a759-600214f8c5dc
processing line 551 with id:616, name:Guangshan Xian [lat=32.009701, lon=114.898773], type: Xian...
inserted a new POI with UUID: 170d5682-b117-4f27-9eb9-06430a6c7724
processing line 552 with id:617, name:Xi Xian [lat=32.342430, lon=114.729088], type: Xian...
inserted a new POI with UUID: 8fd59ef0-eef3-4aaf-8520-127df6793749
processing line 553 with id:618, name:Xincai Xian [lat=32.751263, lon=114.973915], type: Xian...
inserted a new POI with UUID: 8dcc25d8-462c-452a-9ec2-64e5c6c8bbc9
processing line 554 with id:619, name:Queshan Xian [lat=32.807674, lon=114.019905], type: Xian...
inserted a new POI with UUID: 5d00b64b-b522-447b-aa74-6c8614476c1a
processing line 555 with id:620, name:Luoshan Xian [lat=32.202374, lon=114.522240], type: Xian...
inserted a new POI with UUID: 3374bf6b-faed-46a0-8247-c586a7abbe71
processing line 556 with id:621, name:Jun Xian [lat=35.668385, lon=114.544319], type: Xian...
inserted a new POI with UUID: 565dc6d3-f301-4674-8c3b-3bc51384f8d5
processing line 557 with id:622, name:Shangcai Xian [lat=33.267239, lon=114.259353], type: Xian...
inserted a new POI with UUID: 4bd942b7-3ab7-426c-9d84-24468b0a73f9
processing line 558 with id:623, name:Baofeng Xian [lat=33.871128, lon=113.061172], type: Xian...
inserted a new POI with UUID: f41a9278-e30b-4d73-9dbc-184e08747561
processing line 559 with id:624, name:Zhuxi Xian [lat=32.333389, lon=109.709518], type: Xian...
inserted a new POI with UUID: 4c8a4b56-b183-49bc-b57e-1bb94ad3b291
processing line 560 with id:625, name:Yunxi Xian [lat=32.995606, lon=110.418800], type: Xian...
inserted a new POI with UUID: 679a3e37-0215-4a50-aa6f-7ea398a6ad46
processing line 561 with id:626, name:Yun Xian [lat=32.834000, lon=110.814000], type: Xian...
inserted a new POI with UUID: 861e7c3c-4f77-401f-9e29-97bc64ef70ad
processing line 562 with id:627, name:Fang Xian [lat=32.058971, lon=110.727150], type: Xian...
inserted a new POI with UUID: e21c1711-a2f2-4558-881c-0b35046c9ede
processing line 563 with id:628, name:Zhushan Xian [lat=32.226128, lon=110.228599], type: Xian...
inserted a new POI with UUID: 7eda4f8b-3674-4555-bbed-50b1a0eba3cd
processing line 564 with id:629, name:Jun Zhou [lat=32.668153, lon=111.165570], type: Zhou...
inserted a new POI with UUID: 1179bb57-96a3-450c-90d5-6161b0828af5
processing line 565 with id:630, name:Guanghua Xian [lat=32.405822, lon=111.685479], type: Xian...
inserted a new POI with UUID: fb5a3906-a8b2-4987-a919-f4b3871b9ad6
processing line 566 with id:631, name:Gucheng Xian [lat=32.269360, lon=111.645805], type: Xian...
inserted a new POI with UUID: ece029f8-49c6-4d34-8f15-69b2d5c63b11
processing line 567 with id:632, name:Zaoyang Xian [lat=32.132023, lon=112.756599], type: Xian...
inserted a new POI with UUID: 86287169-c8a6-4a1a-88de-64a5efb857bf
processing line 568 with id:633, name:Xiangyang Xian [lat=32.013472, lon=112.148869], type: Xian...
inserted a new POI with UUID: b69ae4ac-8339-4757-a8c9-b8b8b1ab3d97
processing line 569 with id:634, name:Gui Zhou [lat=30.999617, lon=110.694160], type: Zhou...
inserted a new POI with UUID: c034e6de-f9d4-4e74-a6a7-6e7678567f9e
processing line 570 with id:635, name:Xingshan Xian [lat=31.235251, lon=110.759285], type: Xian...
inserted a new POI with UUID: ef84b819-aac4-497e-851b-61afbdf7cb03
processing line 571 with id:636, name:Badong Xian [lat=31.030022, lon=110.404533], type: Xian...
inserted a new POI with UUID: b130e594-7a2f-4bf0-bfd5-3c7ed95a48bd
processing line 572 with id:637, name:Nanzhang Xian [lat=31.782000, lon=111.845000], type: Xian...
inserted a new POI with UUID: e9f63742-24e1-4d56-831e-a8f475705810
processing line 573 with id:638, name:Baokang Xian [lat=31.888035, lon=111.267082], type: Xian...
inserted a new POI with UUID: 9319381a-ae36-43d3-aecc-0cd1968ac3c4
processing line 574 with id:639, name:Yuan'an Xian [lat=31.068062, lon=111.641762], type: Xian...
inserted a new POI with UUID: f7fadabd-44c4-4a96-85e7-90f6c7e27e32
processing line 575 with id:640, name:Yicheng Xian [lat=31.710701, lon=112.260132], type: Xian...
inserted a new POI with UUID: b81463fc-67d0-4aaf-9399-ae191c0376bc
processing line 576 with id:641, name:Zhongxiang Xian [lat=31.169827, lon=112.589256], type: Xian...
inserted a new POI with UUID: 77202ea9-881a-44b2-94a9-50856147bc84
processing line 577 with id:642, name:Yunmeng Xian [lat=31.025822, lon=113.746399], type: Xian...
inserted a new POI with UUID: f3b58a69-d53a-459d-92e5-cf76104d31af
processing line 578 with id:643, name:Sui Zhou [lat=31.715105, lon=113.369820], type: Zhou...
inserted a new POI with UUID: ab151cf4-ddf6-4406-8cfb-7adb9f63d486
processing line 579 with id:644, name:Anlu Xian [lat=31.263714, lon=113.688919], type: Xian...
inserted a new POI with UUID: ab54d285-3337-45a4-9aa7-7fd8f603b69c
processing line 580 with id:645, name:Yingshan Xian [lat=31.618320, lon=113.818992], type: Xian...
inserted a new POI with UUID: eb8e1900-2219-41de-bf64-e888fd6f2351
processing line 581 with id:646, name:Huang'an Xian [lat=31.287647, lon=114.615723], type: Xian...
inserted a new POI with UUID: 16930ffe-abdf-4e8c-a954-a87e8a8a175e
processing line 582 with id:647, name:Macheng Xian [lat=31.180918, lon=115.030968], type: Xian...
inserted a new POI with UUID: 7966bace-f1a8-4c94-b620-45a52ddd0ac5
processing line 583 with id:648, name:Lichuan Xian [lat=30.299772, lon=108.933540], type: Xian...
inserted a new POI with UUID: 8dbc9a5a-7576-4dee-95df-5848a183824a
processing line 584 with id:649, name:Jianshi Xian [lat=30.610687, lon=109.726273], type: Xian...
inserted a new POI with UUID: 98c2e8d2-c887-4296-9c8e-fd5a20d5c900
processing line 585 with id:650, name:Xuan'en Xian [lat=29.989573, lon=109.480232], type: Xian...
inserted a new POI with UUID: 2bada91b-c008-409a-92f4-2a1df306c10d
processing line 586 with id:651, name:Enshi Xian [lat=30.272259, lon=109.478615], type: Xian...
inserted a new POI with UUID: d7f5f8d1-b668-45a8-9db8-628b9e6035c6
processing line 587 with id:652, name:Changle Xian [lat=30.204006, lon=110.678856], type: Xian...
inserted a new POI with UUID: 483fd905-1d50-4a44-b8a8-d0ba79e7c608
processing line 588 with id:653, name:Changyang Xian [lat=30.474218, lon=111.191498], type: Xian...
inserted a new POI with UUID: 85ca114e-79a9-487b-89d9-340db4420ee8
processing line 589 with id:654, name:Yidu Xian [lat=30.392000, lon=111.458000], type: Xian...
inserted a new POI with UUID: ee8f1edb-6c16-477a-8463-a7b0743e9851
processing line 590 with id:655, name:Dangyang Xian [lat=30.831511, lon=111.787117], type: Zhou...
inserted a new POI with UUID: d9059593-9390-46ac-9ada-6745f276e79d
processing line 591 with id:656, name:Zhijiang Xian [lat=30.296000, lon=111.501000], type: Xian...
inserted a new POI with UUID: 990e0ce1-7d68-4df1-adf3-e9d049992c4b
processing line 592 with id:657, name:Songzi Xian [lat=30.345695, lon=111.714066], type: Xian...
inserted a new POI with UUID: dae88094-5555-4d01-a549-5b4aa01e13f8
processing line 593 with id:658, name:Jiangling Xian [lat=30.350445, lon=112.190773], type: Xian...
inserted a new POI with UUID: 84c9ef96-b586-40f3-90b5-f1d6ca7ee6e1
processing line 594 with id:659, name:Hanchuan Xian [lat=30.648508, lon=113.828697], type: Xian...
inserted a new POI with UUID: 3f8cca25-cf7b-42ea-8a8d-0110fc25daa2
processing line 595 with id:660, name:Mianyang Zhou [lat=30.189541, lon=113.236603], type: Zhou...
inserted a new POI with UUID: 9f9ef1ed-a757-4d16-8279-03b290e148e3
processing line 596 with id:661, name:Yingcheng Xian [lat=30.946003, lon=113.569679], type: Xian...
inserted a new POI with UUID: b53f4038-14fd-491d-a542-54e90c77904a
processing line 597 with id:662, name:Xiaogan Xian [lat=30.926222, lon=113.910355], type: Xian...
inserted a new POI with UUID: bf4ca584-fcfd-46dc-b098-106178c9246a
processing line 598 with id:663, name:Donghu Xian [lat=30.704227, lon=111.287125], type: Xian...
inserted a new POI with UUID: e8ffec25-99fc-4e7f-a612-f83129d354e7
processing line 599 with id:664, name:Hanyang Xian [lat=30.544375, lon=114.261928], type: Xian...
inserted a new POI with UUID: 630cfbe8-bbdf-492e-8ac4-324daa64fb2a
processing line 600 with id:665, name:Jiangxia Xian [lat=30.541385, lon=114.319194], type: Xian...
inserted a new POI with UUID: 30bda0d4-fca1-42ee-8e12-4a495a017052
processing line 601 with id:666, name:Huanggang Xian [lat=30.446987, lon=114.865494], type: Xian...
inserted a new POI with UUID: 8436dc25-f91c-4bbd-990f-6e8678997ea0
processing line 602 with id:667, name:Huangpi Xian [lat=30.875669, lon=114.365593], type: Xian...
inserted a new POI with UUID: 199fdbeb-110b-4685-8306-d2f3aa149145
processing line 603 with id:668, name:Daye Xian [lat=30.093138, lon=114.962959], type: Xian...
inserted a new POI with UUID: 5bb4ae0c-f768-4da8-977e-ba5eb0306cc9
processing line 604 with id:669, name:Wuchang Xian [lat=30.402718, lon=114.879906], type: Xian...
inserted a new POI with UUID: 45de21e8-fc6c-4aff-8d0e-541da4f76f85
processing line 605 with id:670, name:Guangji Xian [lat=30.136482, lon=115.591202], type: Xian...
inserted a new POI with UUID: 0cf5318b-bac3-4105-87cd-2ba8437b5b03
processing line 606 with id:671, name:Huangmei Xian [lat=30.079201, lon=115.934936], type: Xian...
inserted a new POI with UUID: 399331d9-3135-4d46-88f3-bddad1de2ad0
processing line 607 with id:672, name:Qishui Xian [lat=30.458691, lon=115.252037], type: Xian...
inserted a new POI with UUID: 83344361-f8d7-4ee5-981b-971899155539
processing line 608 with id:673, name:Qi Zhou [lat=30.062502, lon=115.345200], type: Zhou...
inserted a new POI with UUID: 5d7fc1d0-eae1-4051-a2d2-5f7d6424eed1
processing line 609 with id:674, name:Luotian Xian [lat=30.790346, lon=115.390396], type: Xian...
inserted a new POI with UUID: 72f619f7-76f8-401c-ba7b-a5a28db2ba08
processing line 610 with id:675, name:Laifeng Xian [lat=29.505201, lon=109.404823], type: Xian...
inserted a new POI with UUID: 9635be6a-1371-49c6-b35f-49efbcada1cc
processing line 611 with id:676, name:Xianfeng Xian [lat=29.676367, lon=109.144257], type: Xian...
inserted a new POI with UUID: b0c5d700-bcb2-4e30-855e-6f0535e1fd03
processing line 612 with id:677, name:Hefeng Zhou [lat=29.892548, lon=110.025551], type: Zhou...
inserted a new POI with UUID: 5f40718f-46b0-4d3f-9beb-30d2ef5c480c
