{
  "version": 3,
  "status": "ok",
  "response": {
    "data": [
      {
        "address": "1801 Avenue Of The Stars",
        "category": "Business & Professional Services > Equipment, Supplies & Services > Audiovisual",
        "country": "US",
        "factual_id": "9c3f2986-9970-422e-9991-d33a0af2120f",
        "latitude": 34.060254,
        "locality": "Los Angeles",
        "longitude": -118.418428,
        "name": "Tech Verb",
        "postcode": "90067",
        "region": "CA",
        "status": "1",
        "tel": "(310) 553-3050",
        "is_social": false,
        "$distance": 10.924102
      },
      {
        "address": "1801 Avenue Of The Stars",
        "category": "Real Estate & Home Improvement > Real Estate Agents",
        "country": "US",
        "factual_id": "7b07aa4e-bd15-44ae-aad1-c7359fe572f9",
        "latitude": 34.060254,
        "locality": "Los Angeles",
        "longitude": -118.418428,
        "name": "Audrey Max Estates by Simon Darvish",
        "postcode": "90067",
        "region": "CA",
        "status": "1",
        "tel": "(310) 772-2897",
        "website": "http://www.audreymaxestates.com/",
        "is_social": false,
        "$distance": 10.924102
      },
      {
        "address": "1801 Avenue Of The Stars",
        "category": "Legal & Financial > Lawyers & Legal Services",
        "country": "US",
        "factual_id": "170ccbb7-5d3c-466a-98a0-fba588a1cbf6",
        "latitude": 34.060265,
        "locality": "Los Angeles",
        "longitude": -118.418419,
        "name": "Ross Jack B Attorney",
        "postcode": "90067",
        "region": "CA",
        "status": "1",
        "tel": "(310) 277-3108",
        "is_social": false,
        "$distance": 11.390095
      },
      {
        "address": "1801 Avenue Of The Stars",
        "category": "Legal & Financial > Lawyers & Legal Services",
        "country": "US",
        "factual_id": "d17cb139-2be8-476e-a837-2c552ec6ed49",
        "latitude": 34.060265,
        "locality": "Los Angeles",
        "longitude": -118.418419,
        "name": "De Vaney Kathleen Attorney",
        "postcode": "90067",
        "region": "CA",
        "status": "1",
        "tel": "(310) 552-3100",
        "is_social": false,
        "$distance": 11.390095
      },
      {
        "address": "1801 Avenue Of The Stars",
        "country": "US",
        "factual_id": "722e6ea0-1e18-012f-0643-0030487f54d8",
        "latitude": 34.060265,
        "locality": "Los Angeles",
        "longitude": -118.418419,
        "name": "Niknia Law Offices",
        "postcode": "90067",
        "region": "CA",
        "status": "1",
        "tel": "(310) 663-8857",
        "website": "http://niknialaw.com",
        "is_social": false,
        "$distance": 11.390095
      },
      {
        "address": "1801 Avenue Of The Stars",
        "country": "US",
        "factual_id": "78769a60-1e18-012f-0643-0030487f54d8",
        "latitude": 34.060265,
        "locality": "Los Angeles",
        "longitude": -118.418419,
        "name": "Mpi",
        "postcode": "90067",
        "region": "CA",
        "status": "1",
        "tel": "(310) 859-7300",
        "is_social": false,
        "$distance": 11.390095
      },
      {
        "address": "1801 Avenue Of The Stars",
        "address_extended": "Ste 340",
        "category": "Legal & Financial > Lawyers & Legal Services",
        "country": "US",
        "factual_id": "547599fa-f3ad-4975-bae8-e370a4b2bcec",
        "latitude": 34.060265,
        "locality": "Los Angeles",
        "longitude": -118.418419,
        "name": "Asher- Raymond L. Attorney",
        "postcode": "90067",
        "region": "CA",
        "status": "1",
        "tel": "(310) 277-4510",
        "is_social": false,
        "$distance": 11.390095
      },
      {
        "address": "1801 Avenue Of The Stars",
        "category": "Shopping > Shopping Centers & Malls",
        "country": "US",
        "factual_id": "be7ac401-d4e6-4779-ae72-928facf70502",
        "latitude": 34.060265,
        "locality": "Los Angeles",
        "longitude": -118.418419,
        "name": "Westfield Century City",
        "postcode": "90067",
        "region": "CA",
        "status": "1",
        "tel": "(310) 553-5300",
        "is_social": true,
        "$distance": 11.390095
      },
      {
        "address": "1801 Avenue Of The Stars",
        "country": "US",
        "factual_id": "7bb49390-1e18-012f-0643-0030487f54d8",
        "latitude": 34.060265,
        "locality": "Los Angeles",
        "longitude": -118.418419,
        "name": "Sanford Millar",
        "postcode": "90067",
        "region": "CA",
        "status": "1",
        "tel": "(310) 556-3007",
        "website": "http://www.taxattorneycalifornia.net",
        "is_social": false,
        "$distance": 11.390095
      },
      {
        "address": "1801 Avenue Of The Stars",
        "address_extended": "Ste 446",
        "category": "Business & Professional Services > Equipment, Supplies & Services > Petroleum",
        "country": "US",
        "factual_id": "e922d566-da91-492a-a40b-b861ca502a7f",
        "latitude": 34.060554,
        "locality": "Los Angeles",
        "longitude": -118.417915,
        "name": "Dixie Shamrock",
        "postcode": "90067",
        "region": "CA",
        "status": "1",
        "tel": "(310) 553-7119",
        "is_social": false,
        "$distance": 57.75148
      },
      {
        "address": "1801 Avenue Of The Stars",
        "address_extended": "Ste 727",
        "category": "Education > Educational Services",
        "country": "US",
        "factual_id": "99d414b9-821c-4ccf-80b8-0fa219baf1c0",
        "latitude": 34.060554,
        "locality": "Los Angeles",
        "longitude": -118.417915,
        "name": "Bluewater Learning",
        "postcode": "90067",
        "region": "CA",
        "status": "1",
        "tel": "(310) 552-2772",
        "is_social": true,
        "$distance": 57.75148
      },
      {
        "address": "1801 Avenue Of The Stars",
        "address_extended": "Ste 700",
        "category": "Community & Government > Religious",
        "country": "US",
        "email": "losangeles@losangeles.ice.it",
        "factual_id": "832706c2-6a03-4505-a45c-71627df4ac20",
        "fax": "(310) 203-8335",
        "latitude": 34.060554,
        "locality": "Los Angeles",
        "longitude": -118.417915,
        "name": "Italian Trade Commissioner",
        "postcode": "90067",
        "region": "CA",
        "status": "1",
        "tel": "(323) 879-0950",
        "website": "http://www.italtrade.com/",
        "is_social": true,
        "$distance": 57.75148
      },
      {
        "address": "1801 Avenue Of The Stars",
        "address_extended": "Ste 932",
        "category": "Legal & Financial > Lawyers & Legal Services",
        "country": "US",
        "factual_id": "f6f67428-4b29-4152-b1df-8d1080275f6e",
        "latitude": 34.060589,
        "locality": "Los Angeles",
        "longitude": -118.417948,
        "name": "Jack Paul",
        "postcode": "90067",
        "region": "CA",
        "status": "1",
        "tel": "(310) 277-1322",
        "is_social": false,
        "$distance": 58.64884
      },
      {
        "address": "1801 Avenue Of The Stars",
        "category": "Real Estate & Home Improvement",
        "country": "US",
        "factual_id": "27028ebf-3cdf-4a4b-929a-4855f5997845",
        "latitude": 34.060589,
        "locality": "Los Angeles",
        "longitude": -118.417948,
        "name": "New Plan Capital",
        "postcode": "90067",
        "region": "CA",
        "status": "1",
        "tel": "(310) 284-8401",
        "is_social": false,
        "$distance": 58.64884
      },
      {
        "address": "1801 Avenue Of The Stars",
        "address_extended": "Ste 704",
        "category": "Legal & Financial > Accounting & Bookkeeping",
        "country": "US",
        "factual_id": "93cb0cef-3b1f-4628-a9b3-b8fd306b8d9c",
        "latitude": 34.060589,
        "locality": "Los Angeles",
        "longitude": -118.417948,
        "name": "Bral Marc CPA",
        "postcode": "90067",
        "region": "CA",
        "status": "1",
        "tel": "(310) 277-5859",
        "website": "http://www.marcbralcpa.com/",
        "is_social": false,
        "$distance": 58.64884
      },
      {
        "address": "1801 Avenue Of The Stars",
        "address_extended": "Ste 1444",
        "category": "Business & Professional Services > Employment Agencies",
        "country": "US",
        "factual_id": "9217c2cc-af04-42d0-80b9-8dab3f019e75",
        "latitude": 34.060589,
        "locality": "Los Angeles",
        "longitude": -118.417948,
        "name": "Ultimate Staffing",
        "postcode": "90067",
        "region": "CA",
        "status": "1",
        "tel": "(310) 788-0073",
        "is_social": false,
        "$distance": 58.64884
      },
      {
        "address": "1801 Avenue Of The Stars",
        "category": "Travel & Tourism > Lodging > Hotels & Motels",
        "country": "US",
        "factual_id": "18b5bfdd-7d1b-4ee4-ab68-64c748bdb57c",
        "latitude": 34.060589,
        "locality": "Los Angeles",
        "longitude": -118.417948,
        "name": "Loews Hotels Western Region",
        "postcode": "90067",
        "region": "CA",
        "status": "1",
        "tel": "(310) 553-5363",
        "is_social": true,
        "$distance": 58.64884
      },
      {
        "address": "1801 Avenue Of The Stars",
        "address_extended": "Ste 404",
        "category": "Legal & Financial > Financial Planning & Investments",
        "country": "US",
        "factual_id": "a6ba6047-f907-4221-bbba-34b1a081199f",
        "latitude": 34.060589,
        "locality": "Los Angeles",
        "longitude": -118.417948,
        "name": "Olivestone Financial Services",
        "postcode": "90067",
        "region": "CA",
        "status": "1",
        "tel": "(310) 552-3566",
        "is_social": false,
        "$distance": 58.64884
      },
      {
        "address": "1801 Avenue Of The Stars",
        "address_extended": "Ste 950",
        "category": "Legal & Financial > Lawyers & Legal Services",
        "country": "US",
        "factual_id": "714ed0db-8c40-4810-b161-54e6774a10cf",
        "latitude": 34.060589,
        "locality": "Los Angeles",
        "longitude": -118.417948,
        "name": "Korn Jeffrey W Esq",
        "postcode": "90067",
        "region": "CA",
        "status": "1",
        "tel": "(310) 843-9933",
        "is_social": false,
        "$distance": 58.64884
      },
      {
        "address": "1801 Avenue Of The Stars",
        "address_extended": "Ste 510",
        "category": "Legal & Financial > Lawyers & Legal Services",
        "country": "US",
        "factual_id": "2be11540-ca6e-4b6b-b570-0c53c53971e1",
        "latitude": 34.060589,
        "locality": "Los Angeles",
        "longitude": -118.417948,
        "name": "Sandler and Rosen",
        "postcode": "90067",
        "region": "CA",
        "status": "1",
        "tel": "(310) 277-4411",
        "is_social": false,
        "$distance": 58.64884
      }
    ],
    "included_rows": 20
  }
}
